<?xml version="1.0" encoding="utf-8"?>
	<resources>
		<wpt lat="35.879560" lon="14.509250">
			<name>Serjeant's Mess</name>
			<desc></desc>
		</wpt>
		<wpt lat="35.868240" lon="14.510190">
			<name>Miracle Foods</name>
			<desc></desc>
		</wpt>
		<wpt lat="35.899550" lon="14.512520">
			<name>Il-Kapitali</name>
			<desc></desc>
		</wpt>
		<wpt lat="35.881640" lon="14.392190">
			<name>The Egg</name>
			<desc></desc>
		</wpt>
		<wpt lat="35.950680" lon="14.383120">
			<name>Ganesha Indian Restaurant</name>
			<desc></desc>
		</wpt>
		<wpt lat="36.044840" lon="14.241090">
			<name>Glory of England Bar</name>
			<desc></desc>
		</wpt>
		<wpt lat="35.895400" lon="14.449550">
			<name>Mezzanin Wine Bar</name>
			<desc></desc>
		</wpt>
		<wpt lat="35.880390" lon="14.355070">
			<name>Christian</name>
			<desc></desc>
		</wpt>
		<wpt lat="35.899540" lon="14.514540">
			<name>Pastizzeria Sphinx</name>
			<desc></desc>
		</wpt>
		<wpt lat="36.058870" lon="14.219700">
			<name>Religion place</name>
			<desc></desc>
		</wpt>
		<wpt lat="35.862070" lon="14.566870">
			<name>Chloe's corner shop</name>
			<desc></desc>
		</wpt>
		<wpt lat="35.890180" lon="14.508190">
			<name>Hard Rock Bar</name>
			<desc>burger</desc>
		</wpt>
		<wpt lat="35.900890" lon="14.489520">
			<name>Supermarket</name>
			<desc></desc>
		</wpt>
		<wpt lat="35.952240" lon="14.410280">
			<name>Angelo's Pub, Diner &amp; Pizzeria</name>
			<desc></desc>
		</wpt>
		<wpt lat="35.902310" lon="14.494000">
			<name>Miracle Foods</name>
			<desc></desc>
		</wpt>
		<wpt lat="36.058240" lon="14.274240">
			<name>Shop</name>
			<desc></desc>
		</wpt>
		<wpt lat="35.946660" lon="14.390890">
			<name>Il-Veccja Restaurant</name>
			<desc></desc>
		</wpt>
		<wpt lat="35.951190" lon="14.414090">
			<name>Fat Harry's</name>
			<desc></desc>
		</wpt>
		<wpt lat="36.072090" lon="14.255430">
			<name>Jumbo Mini-Market</name>
			<desc></desc>
		</wpt>
		<wpt lat="35.883870" lon="14.404240">
			<name>Veduta</name>
			<desc></desc>
		</wpt>
		<wpt lat="35.876350" lon="14.384360">
			<name>Religion place</name>
			<desc></desc>
		</wpt>
		<wpt lat="35.919520" lon="14.366140">
			<name>Mgarr</name>
			<desc></desc>
		</wpt>
		<wpt lat="36.055480" lon="14.203500">
			<name>San Lawrenz Parish Church</name>
			<desc></desc>
		</wpt>
		<wpt lat="35.897140" lon="14.503360">
			<name>Lo Squero</name>
			<desc></desc>
		</wpt>
		<wpt lat="36.045450" lon="14.238300">
			<name>Atrium</name>
			<desc></desc>
		</wpt>
		<wpt lat="36.030850" lon="14.234570">
			<name>Munxar</name>
			<desc></desc>
		</wpt>
		<wpt lat="35.904930" lon="14.494760">
			<name>Gzira Parish Church</name>
			<desc></desc>
		</wpt>
		<wpt lat="35.897440" lon="14.511980">
			<name>San Giovanni</name>
			<desc></desc>
		</wpt>
		<wpt lat="36.073370" lon="14.257960">
			<name>Otters Bistro</name>
			<desc></desc>
		</wpt>
		<wpt lat="35.947570" lon="14.405150">
			<name>Museum San Pawl</name>
			<desc></desc>
		</wpt>
		<wpt lat="35.914820" lon="14.444890">
			<name>Our Lady of Victory</name>
			<desc></desc>
		</wpt>
		<wpt lat="36.045890" lon="14.254580">
			<name>Graveyard</name>
			<desc></desc>
		</wpt>
		<wpt lat="35.911020" lon="14.436330">
			<name>Kappella Familja Mqaddsa</name>
			<desc></desc>
		</wpt>
		<wpt lat="36.031350" lon="14.219050">
			<name>Sea Shells</name>
			<desc></desc>
		</wpt>
		<wpt lat="36.070560" lon="14.257810">
			<name>Internet Cafe</name>
			<desc></desc>
		</wpt>
		<wpt lat="35.895520" lon="14.488260">
			<name>Fast food</name>
			<desc></desc>
		</wpt>
		<wpt lat="35.906530" lon="14.495990">
			<name>Tanti Palmier</name>
			<desc></desc>
		</wpt>
		<wpt lat="35.886710" lon="14.402970">
			<name>Religion place</name>
			<desc></desc>
		</wpt>
		<wpt lat="35.898360" lon="14.515290">
			<name>Christian</name>
			<desc></desc>
		</wpt>
		<wpt lat="36.044780" lon="14.239690">
			<name>Christian</name>
			<desc></desc>
		</wpt>
		<wpt lat="35.902280" lon="14.449160">
			<name>Lija bocci club</name>
			<desc></desc>
		</wpt>
		<wpt lat="35.871570" lon="14.441900">
			<name>Supermarket</name>
			<desc></desc>
		</wpt>
		<wpt lat="35.906400" lon="14.328540">
			<name>Ras Ir-Raheb</name>
			<desc></desc>
		</wpt>
		<wpt lat="35.887330" lon="14.521370">
			<name>Saint Lawrence</name>
			<desc></desc>
		</wpt>
		<wpt lat="36.058670" lon="14.219280">
			<name>Religion place</name>
			<desc></desc>
		</wpt>
		<wpt lat="36.046430" lon="14.239950">
			<name>Cathedral Museum</name>
			<desc></desc>
		</wpt>
		<wpt lat="35.909050" lon="14.477450">
			<name>Lidl</name>
			<desc></desc>
		</wpt>
		<wpt lat="36.012070" lon="14.330890">
			<name>Graveyard</name>
			<desc></desc>
		</wpt>
		<wpt lat="35.896780" lon="14.512740">
			<name>Dolceria Croce Bonaci</name>
			<desc></desc>
		</wpt>
		<wpt lat="35.909350" lon="14.504570">
			<name>Marks&amp;Spencer</name>
			<desc></desc>
		</wpt>
		<wpt lat="35.907910" lon="14.510360">
			<name>Chain Supermarket</name>
			<desc></desc>
		</wpt>
		<wpt lat="35.897670" lon="14.512620">
			<name>St. John's Co-Cathedral</name>
			<desc></desc>
		</wpt>
		<wpt lat="35.878080" lon="14.481450">
			<name>Pavi Supermarket</name>
			<desc></desc>
		</wpt>
		<wpt lat="35.898690" lon="14.451370">
			<name>Balzan Parish Church</name>
			<desc></desc>
		</wpt>
		<wpt lat="35.888710" lon="14.521690">
			<name>Christian</name>
			<desc></desc>
		</wpt>
		<wpt lat="35.894560" lon="14.507850">
			<name>Monument</name>
			<desc></desc>
		</wpt>
		<wpt lat="35.872970" lon="14.520880">
			<name>Christian</name>
			<desc></desc>
		</wpt>
		<wpt lat="35.922180" lon="14.346010">
			<name>Castle</name>
			<desc></desc>
		</wpt>
		<wpt lat="36.071850" lon="14.236190">
			<name>Oajru Bar</name>
			<desc></desc>
		</wpt>
		<wpt lat="36.042020" lon="14.245470">
			<name>Eldorado</name>
			<desc></desc>
		</wpt>
		<wpt lat="35.896580" lon="14.512010">
			<name>Holland &amp; Barret</name>
			<desc></desc>
		</wpt>
		<wpt lat="35.867470" lon="14.506610">
			<name>Carters</name>
			<desc></desc>
		</wpt>
		<wpt lat="35.921000" lon="14.490500">
			<name>Basic Food &amp; Drinks</name>
			<desc></desc>
		</wpt>
		<wpt lat="35.883300" lon="14.400930">
			<name>Micky Bar</name>
			<desc></desc>
		</wpt>
		<wpt lat="36.023390" lon="14.292070">
			<name>Fort Chambrai</name>
			<desc></desc>
		</wpt>
		<wpt lat="35.956140" lon="14.366030">
			<name>Royal China</name>
			<desc>chinese</desc>
		</wpt>
		<wpt lat="35.871990" lon="14.441670">
			<name>Supermarket</name>
			<desc></desc>
		</wpt>
		<wpt lat="36.023690" lon="14.297260">
			<name>Pizza Marina Pub</name>
			<desc></desc>
		</wpt>
		<wpt lat="35.880460" lon="14.529300">
			<name>Notre Dame Gate</name>
			<desc></desc>
		</wpt>
		<wpt lat="36.071690" lon="14.258010">
			<name>Neptune's</name>
			<desc></desc>
		</wpt>
		<wpt lat="35.881430" lon="14.520810">
			<name>Id-dar ta' Rob</name>
			<desc></desc>
		</wpt>
		<wpt lat="35.902390" lon="14.494110">
			<name>A &amp; L Fruit &amp; Vegetables</name>
			<desc></desc>
		</wpt>
		<wpt lat="35.934750" lon="14.414640">
			<name>Christian</name>
			<desc></desc>
		</wpt>
		<wpt lat="35.871820" lon="14.440220">
			<name>Pub</name>
			<desc></desc>
		</wpt>
		<wpt lat="36.055450" lon="14.309130">
			<name>Sopu Tower</name>
			<desc></desc>
		</wpt>
		<wpt lat="35.915850" lon="14.493330">
			<name>City of London</name>
			<desc></desc>
		</wpt>
		<wpt lat="35.895310" lon="14.449700">
			<name>Restaurant</name>
			<desc></desc>
		</wpt>
		<wpt lat="35.922370" lon="14.490670">
			<name>Chicago</name>
			<desc></desc>
		</wpt>
		<wpt lat="35.882790" lon="14.397480">
			<name>Fast food</name>
			<desc></desc>
		</wpt>
		<wpt lat="35.868160" lon="14.510060">
			<name>Monument tal-Gwerra</name>
			<desc></desc>
		</wpt>
		<wpt lat="36.024130" lon="14.296690">
			<name>Okulus</name>
			<desc></desc>
		</wpt>
		<wpt lat="35.888460" lon="14.488630">
			<name>Christian</name>
			<desc></desc>
		</wpt>
		<wpt lat="35.915660" lon="14.492960">
			<name>Peperoncino</name>
			<desc></desc>
		</wpt>
		<wpt lat="35.924490" lon="14.487490">
			<name>Bay Street Complex</name>
			<desc></desc>
		</wpt>
		<wpt lat="35.922510" lon="14.491290">
			<name>Krispy Café Bar</name>
			<desc></desc>
		</wpt>
		<wpt lat="35.915140" lon="14.504250">
			<name>Mint</name>
			<desc></desc>
		</wpt>
		<wpt lat="35.884880" lon="14.403620">
			<name>National Museum of Natural History</name>
			<desc></desc>
		</wpt>
		<wpt lat="35.895140" lon="14.507600">
			<name>Monument</name>
			<desc></desc>
		</wpt>
		<wpt lat="35.891950" lon="14.503730">
			<name>Christian</name>
			<desc></desc>
		</wpt>
		<wpt lat="35.897780" lon="14.511750">
			<name>King's Own Band Club Bar &amp; Restaurant</name>
			<desc></desc>
		</wpt>
		<wpt lat="35.892530" lon="14.471700">
			<name>Stuzzico</name>
			<desc></desc>
		</wpt>
		<wpt lat="35.924310" lon="14.488630">
			<name>Nordic</name>
			<desc></desc>
		</wpt>
		<wpt lat="36.058350" lon="14.219570">
			<name>Religion place</name>
			<desc></desc>
		</wpt>
		<wpt lat="35.897520" lon="14.511180">
			<name>National Museum of Archaeology</name>
			<desc></desc>
		</wpt>
		<wpt lat="35.870710" lon="14.384590">
			<name>Santa Katerina</name>
			<desc></desc>
		</wpt>
		<wpt lat="35.887450" lon="14.497650">
			<name>Spencer Monument</name>
			<desc></desc>
		</wpt>
		<wpt lat="35.910320" lon="14.427070">
			<name>Save Wise Supermarket</name>
			<desc></desc>
		</wpt>
		<wpt lat="35.895900" lon="14.349010">
			<name>Bahrija</name>
			<desc></desc>
		</wpt>
		<wpt lat="35.884480" lon="14.400490">
			<name>Is-serkin</name>
			<desc></desc>
		</wpt>
		<wpt lat="36.044680" lon="14.238870">
			<name>Bellusa</name>
			<desc></desc>
		</wpt>
		<wpt lat="35.868460" lon="14.506910">
			<name>Fast food</name>
			<desc></desc>
		</wpt>
		<wpt lat="35.948200" lon="14.416720">
			<name>Kappella tas-Sagrament</name>
			<desc></desc>
		</wpt>
		<wpt lat="35.887680" lon="14.520620">
			<name>Maritime Museum</name>
			<desc></desc>
		</wpt>
		<wpt lat="35.873910" lon="14.504390">
			<name>Fast food</name>
			<desc></desc>
		</wpt>
		<wpt lat="35.881730" lon="14.399380">
			<name>St. Paul's</name>
			<desc></desc>
		</wpt>
		<wpt lat="35.882030" lon="14.473850">
			<name>1743 Razzett l-Antik</name>
			<desc>regional</desc>
		</wpt>
		<wpt lat="36.055640" lon="14.212120">
			<name>Lighthouse Supermarket</name>
			<desc></desc>
		</wpt>
		<wpt lat="35.903640" lon="14.362260">
			<name>Castle</name>
			<desc></desc>
		</wpt>
		<wpt lat="35.898270" lon="14.452230">
			<name>Socjeta Filarmonika Marija Annunzjata Balzan A.D.</name>
			<desc></desc>
		</wpt>
		<wpt lat="36.054880" lon="14.210680">
			<name>Cottage</name>
			<desc></desc>
		</wpt>
		<wpt lat="35.924140" lon="14.488720">
			<name>Cube</name>
			<desc></desc>
		</wpt>
		<wpt lat="36.044510" lon="14.234200">
			<name>Ta Dirjanu Supermarket</name>
			<desc></desc>
		</wpt>
		<wpt lat="35.911970" lon="14.504190">
			<name>Stella Maris Sliema Parish Church</name>
			<desc></desc>
		</wpt>
		<wpt lat="36.027280" lon="14.242750">
			<name>Friend to all bar</name>
			<desc></desc>
		</wpt>
		<wpt lat="36.035360" lon="14.311660">
			<name>Zeppi's Pub</name>
			<desc></desc>
		</wpt>
		<wpt lat="35.952000" lon="14.413340">
			<name>George's Sea Front</name>
			<desc></desc>
		</wpt>
		<wpt lat="36.069860" lon="14.235970">
			<name>Zebbug</name>
			<desc></desc>
		</wpt>
		<wpt lat="35.949170" lon="14.402690">
			<name>Christian</name>
			<desc></desc>
		</wpt>
		<wpt lat="35.897790" lon="14.499950">
			<name>Guze</name>
			<desc></desc>
		</wpt>
		<wpt lat="35.908790" lon="14.505980">
			<name>Gelateria</name>
			<desc></desc>
		</wpt>
		<wpt lat="35.925070" lon="14.488340">
			<name>Hugos Terrace</name>
			<desc></desc>
		</wpt>
		<wpt lat="35.885130" lon="14.400350">
			<name>Domus Romana</name>
			<desc></desc>
		</wpt>
		<wpt lat="35.898000" lon="14.509270">
			<name>Cocopazzo</name>
			<desc>italian</desc>
		</wpt>
		<wpt lat="36.021780" lon="14.249890">
			<name>Il-Girna</name>
			<desc></desc>
		</wpt>
		<wpt lat="35.968820" lon="14.350780">
			<name>Maxim'a</name>
			<desc></desc>
		</wpt>
		<wpt lat="35.881100" lon="14.397870">
			<name>St. Paul's Catecombs</name>
			<desc></desc>
		</wpt>
		<wpt lat="35.921030" lon="14.474430">
			<name>Ibrag Parish Church</name>
			<desc></desc>
		</wpt>
		<wpt lat="35.871870" lon="14.441610">
			<name>Restaurant</name>
			<desc></desc>
		</wpt>
		<wpt lat="35.948980" lon="14.402620">
			<name>Mater Dolorosa</name>
			<desc></desc>
		</wpt>
		<wpt lat="35.909810" lon="14.506120">
			<name>McDonald's</name>
			<desc></desc>
		</wpt>
		<wpt lat="36.071210" lon="14.256210">
			<name>Galeta Super Market</name>
			<desc></desc>
		</wpt>
		<wpt lat="36.061200" lon="14.216460">
			<name>Religion place</name>
			<desc></desc>
		</wpt>
		<wpt lat="35.888590" lon="14.520280">
			<name>Cargo Bar &amp; Dine</name>
			<desc></desc>
		</wpt>
		<wpt lat="35.890850" lon="14.443290">
			<name>Attard Parish Church</name>
			<desc></desc>
		</wpt>
		<wpt lat="35.872560" lon="14.441460">
			<name>Fast food</name>
			<desc></desc>
		</wpt>
		<wpt lat="35.872790" lon="14.438270">
			<name>Christian</name>
			<desc></desc>
		</wpt>
		<wpt lat="35.908470" lon="14.506580">
			<name>Burger King</name>
			<desc></desc>
		</wpt>
		<wpt lat="36.024480" lon="14.242700">
			<name>Maria's Bar</name>
			<desc></desc>
		</wpt>
		<wpt lat="36.036180" lon="14.311560">
			<name>Paul Michael Mini Market</name>
			<desc></desc>
		</wpt>
		<wpt lat="35.874980" lon="14.464680">
			<name>SHopwise</name>
			<desc></desc>
		</wpt>
		<wpt lat="35.887070" lon="14.403170">
			<name>Palazzo Falson</name>
			<desc></desc>
		</wpt>
		<wpt lat="35.921760" lon="14.490520">
			<name>Cork's Irish Pub</name>
			<desc></desc>
		</wpt>
		<wpt lat="36.029410" lon="14.296620">
			<name>Religion place</name>
			<desc></desc>
		</wpt>
		<wpt lat="36.042260" lon="14.240420">
			<name>Tapie's Bar</name>
			<desc></desc>
		</wpt>
		<wpt lat="35.874810" lon="14.534130">
			<name>Religion place</name>
			<desc></desc>
		</wpt>
		<wpt lat="35.919710" lon="14.480050">
			<name>Corner Foodstore</name>
			<desc></desc>
		</wpt>
		<wpt lat="35.869090" lon="14.465470">
			<name>Cavett</name>
			<desc>regional</desc>
		</wpt>
		<wpt lat="35.910060" lon="14.425810">
			<name>Mosta Dome</name>
			<desc></desc>
		</wpt>
		<wpt lat="35.883300" lon="14.403490">
			<name>Fast food</name>
			<desc></desc>
		</wpt>
		<wpt lat="36.071060" lon="14.259760">
			<name>La Trattoria</name>
			<desc></desc>
		</wpt>
		<wpt lat="36.072320" lon="14.261130">
			<name>Il-Menqa l'Antika</name>
			<desc>regional</desc>
		</wpt>
		<wpt lat="35.914640" lon="14.496400">
			<name>Red Dragon</name>
			<desc>chinese</desc>
		</wpt>
		<wpt lat="35.902100" lon="14.417460">
			<name>Religion place</name>
			<desc></desc>
		</wpt>
		<wpt lat="35.876880" lon="14.437670">
			<name>The Convenience Shop</name>
			<desc></desc>
		</wpt>
		<wpt lat="36.051030" lon="14.267740">
			<name>Galea Supermarket</name>
			<desc></desc>
		</wpt>
		<wpt lat="35.897310" lon="14.512730">
			<name>Cathedral Museum</name>
			<desc></desc>
		</wpt>
		<wpt lat="36.070920" lon="14.256400">
			<name>Il-Maħżen</name>
			<desc></desc>
		</wpt>
		<wpt lat="35.892450" lon="14.504760">
			<name>St. Publius Parish Church</name>
			<desc></desc>
		</wpt>
		<wpt lat="35.899080" lon="14.512770">
			<name>Papannis</name>
			<desc>italian</desc>
		</wpt>
		<wpt lat="35.914630" lon="14.495010">
			<name>Our Lady of Mount Carmel</name>
			<desc></desc>
		</wpt>
		<wpt lat="35.922230" lon="14.491060">
			<name>Bellini</name>
			<desc></desc>
		</wpt>
		<wpt lat="35.956240" lon="14.362790">
			<name>Schere Café Bar</name>
			<desc></desc>
		</wpt>
		<wpt lat="35.922040" lon="14.490860">
			<name>The Avenue</name>
			<desc>mediterranean</desc>
		</wpt>
		<wpt lat="35.888230" lon="14.479980">
			<name>St. Venera Church</name>
			<desc></desc>
		</wpt>
		<wpt lat="35.870750" lon="14.440290">
			<name>Christian</name>
			<desc></desc>
		</wpt>
		<wpt lat="36.071190" lon="14.254160">
			<name>Forchetta Restaurant</name>
			<desc></desc>
		</wpt>
		<wpt lat="36.030550" lon="14.217260">
			<name>Silver Seas</name>
			<desc></desc>
		</wpt>
		<wpt lat="35.955370" lon="14.417540">
			<name>Amazonia</name>
			<desc></desc>
		</wpt>
		<wpt lat="35.916340" lon="14.503870">
			<name>Surfside</name>
			<desc></desc>
		</wpt>
		<wpt lat="35.883520" lon="14.399870">
			<name>REDWHITE Trattoria</name>
			<desc></desc>
		</wpt>
		<wpt lat="35.891740" lon="14.472060">
			<name>Scotts Supermarket</name>
			<desc></desc>
		</wpt>
		<wpt lat="35.900200" lon="14.512330">
			<name>Our Lady of Mt. Carmel</name>
			<desc></desc>
		</wpt>
		<wpt lat="35.882700" lon="14.402650">
			<name>Hakir</name>
			<desc></desc>
		</wpt>
		<wpt lat="36.031510" lon="14.219330">
			<name>Il-Kantaa</name>
			<desc></desc>
		</wpt>
		<wpt lat="36.070950" lon="14.259550">
			<name>Smiley's Restaurant</name>
			<desc></desc>
		</wpt>
		<wpt lat="36.047230" lon="14.269070">
			<name>Ġgantija Temples</name>
			<desc></desc>
		</wpt>
		<wpt lat="35.909550" lon="14.426280">
			<name>Pastizzeria Sphinx</name>
			<desc></desc>
		</wpt>
		<wpt lat="35.923690" lon="14.489760">
			<name>Peppermint</name>
			<desc></desc>
		</wpt>
		<wpt lat="36.030830" lon="14.216630">
			<name>Stone Crab</name>
			<desc></desc>
		</wpt>
		<wpt lat="36.006650" lon="14.346190">
			<name>Castle</name>
			<desc></desc>
		</wpt>
		<wpt lat="35.901690" lon="14.446760">
			<name>Lija Parish</name>
			<desc></desc>
		</wpt>
		<wpt lat="35.897390" lon="14.511320">
			<name>McDonald's</name>
			<desc></desc>
		</wpt>
		<wpt lat="35.918480" lon="14.489320">
			<name>Meet - Argentinian Steakhouse</name>
			<desc>steak_house</desc>
		</wpt>
		<wpt lat="36.059240" lon="14.220180">
			<name>Religion place</name>
			<desc></desc>
		</wpt>
		<wpt lat="35.900060" lon="14.509800">
			<name>Cockney's</name>
			<desc></desc>
		</wpt>
		<wpt lat="35.966100" lon="14.355700">
			<name>Maya Beach</name>
			<desc></desc>
		</wpt>
		<wpt lat="35.947680" lon="14.410180">
			<name>Jesters</name>
			<desc></desc>
		</wpt>
		<wpt lat="35.911250" lon="14.436910">
			<name>Shop</name>
			<desc></desc>
		</wpt>
		<wpt lat="36.026090" lon="14.290070">
			<name>St. Joseph Band Club</name>
			<desc></desc>
		</wpt>
		<wpt lat="35.921630" lon="14.490830">
			<name>Okura</name>
			<desc>japanese</desc>
		</wpt>
		<wpt lat="36.044020" lon="14.242820">
			<name>The Duke Shopping Mapp</name>
			<desc></desc>
		</wpt>
		<wpt lat="35.959190" lon="14.424710">
			<name>Ta Fra Ben pizza bar &amp; restaurant</name>
			<desc></desc>
		</wpt>
		<wpt lat="35.865340" lon="14.513670">
			<name>Christian</name>
			<desc></desc>
		</wpt>
		<wpt lat="35.924130" lon="14.491220">
			<name>Rhapsody Café</name>
			<desc></desc>
		</wpt>
		<wpt lat="35.894420" lon="14.470240">
			<name>Shop</name>
			<desc></desc>
		</wpt>
		<wpt lat="35.915610" lon="14.418830">
			<name>Ta' Natu</name>
			<desc></desc>
		</wpt>
		<wpt lat="35.880930" lon="14.496330">
			<name>Christian</name>
			<desc></desc>
		</wpt>
		<wpt lat="35.899890" lon="14.491870">
			<name>Gala Centre</name>
			<desc></desc>
		</wpt>
		<wpt lat="35.956800" lon="14.365510">
			<name>Fast food</name>
			<desc></desc>
		</wpt>
		<wpt lat="35.886860" lon="14.496690">
			<name>M.U.S.E.U.M Church</name>
			<desc></desc>
		</wpt>
		<wpt lat="36.026800" lon="14.242640">
			<name>Sannat Band Club</name>
			<desc></desc>
		</wpt>
		<wpt lat="36.023370" lon="14.246510">
			<name>Supermarket</name>
			<desc></desc>
		</wpt>
		<wpt lat="36.045410" lon="14.238830">
			<name>Cittadella</name>
			<desc></desc>
		</wpt>
		<wpt lat="35.923300" lon="14.491850">
			<name>Tana del Lupo</name>
			<desc>italian</desc>
		</wpt>
		<wpt lat="35.910620" lon="14.506060">
			<name>Tower Supermarket</name>
			<desc></desc>
		</wpt>
		<wpt lat="36.036800" lon="14.286420">
			<name>Ta' Kenuna</name>
			<desc>regional</desc>
		</wpt>
		<wpt lat="35.881400" lon="14.398510">
			<name>Christian</name>
			<desc></desc>
		</wpt>
		<wpt lat="35.956820" lon="14.363500">
			<name>Mandarin Chinese Restaurant</name>
			<desc>chinese</desc>
		</wpt>
		<wpt lat="35.930710" lon="14.346460">
			<name>Fast food</name>
			<desc></desc>
		</wpt>
		<wpt lat="35.958520" lon="14.423200">
			<name>Malta National Aquarium</name>
			<desc></desc>
		</wpt>
		<wpt lat="35.897260" lon="14.493930">
			<name>Mamma Mia</name>
			<desc></desc>
		</wpt>
		<wpt lat="35.921790" lon="14.490860">
			<name>Hot Ice Bar</name>
			<desc></desc>
		</wpt>
		<wpt lat="35.894350" lon="14.511530">
			<name>Lascaris War Rooms</name>
			<desc></desc>
		</wpt>
		<wpt lat="35.871640" lon="14.508280">
			<name>Kristu Re</name>
			<desc></desc>
		</wpt>
		<wpt lat="35.895560" lon="14.451210">
			<name>Zmerc Pub</name>
			<desc></desc>
		</wpt>
		<wpt lat="35.886640" lon="14.401980">
			<name>San Pier</name>
			<desc></desc>
		</wpt>
		<wpt lat="35.860740" lon="14.484970">
			<name>Lidl</name>
			<desc></desc>
		</wpt>
		<wpt lat="35.885110" lon="14.402990">
			<name>Bacchus</name>
			<desc></desc>
		</wpt>
		<wpt lat="35.906670" lon="14.429990">
			<name>Big Fresh</name>
			<desc></desc>
		</wpt>
		<wpt lat="35.950860" lon="14.416890">
			<name>Bar</name>
			<desc></desc>
		</wpt>
		<wpt lat="36.038630" lon="14.294020">
			<name>Azzopardi</name>
			<desc></desc>
		</wpt>
		<wpt lat="35.881830" lon="14.392050">
			<name>Pub</name>
			<desc></desc>
		</wpt>
		<wpt lat="36.045730" lon="14.233400">
			<name>St. Mary Supermarket</name>
			<desc></desc>
		</wpt>
		<wpt lat="35.924490" lon="14.488390">
			<name>Hugos Pub</name>
			<desc></desc>
		</wpt>
		<wpt lat="36.024450" lon="14.242860">
			<name>Ta' Rosina</name>
			<desc></desc>
		</wpt>
		<wpt lat="36.036490" lon="14.198600">
			<name>Grave</name>
			<desc></desc>
		</wpt>
		<wpt lat="35.871890" lon="14.531260">
			<name>Christian</name>
			<desc></desc>
		</wpt>
		<wpt lat="36.059380" lon="14.225850">
			<name>Light House Discount Supermarket</name>
			<desc></desc>
		</wpt>
		<wpt lat="35.953670" lon="14.417200">
			<name>Watercolours</name>
			<desc></desc>
		</wpt>
		<wpt lat="35.898060" lon="14.516060">
			<name>Christian</name>
			<desc></desc>
		</wpt>
		<wpt lat="35.921570" lon="14.491440">
			<name>Ir-rokna</name>
			<desc></desc>
		</wpt>
		<wpt lat="36.030690" lon="14.217420">
			<name>Village Inn</name>
			<desc>indian</desc>
		</wpt>
		<wpt lat="36.035890" lon="14.310970">
			<name>Shop</name>
			<desc></desc>
		</wpt>
		<wpt lat="36.078010" lon="14.250550">
			<name>Seagulls Pizzeria</name>
			<desc></desc>
		</wpt>
		<wpt lat="35.923480" lon="14.491880">
			<name>I Monelli</name>
			<desc></desc>
		</wpt>
		<wpt lat="35.902720" lon="14.494510">
			<name>Tasty - Turkish Kebab House &amp; Pizza</name>
			<desc></desc>
		</wpt>
		<wpt lat="35.949290" lon="14.407000">
			<name>St. Pauls shipwreck on Malta</name>
			<desc></desc>
		</wpt>
		<wpt lat="35.895690" lon="14.470090">
			<name>Shop</name>
			<desc></desc>
		</wpt>
		<wpt lat="36.038020" lon="14.293300">
			<name>Gebuba</name>
			<desc></desc>
		</wpt>
		<wpt lat="35.908750" lon="14.506270">
			<name>McDonald's</name>
			<desc></desc>
		</wpt>
		<wpt lat="35.924410" lon="14.487890">
			<name>McDonald's</name>
			<desc></desc>
		</wpt>
		<wpt lat="35.887130" lon="14.402950">
			<name>Il Gattorpado</name>
			<desc></desc>
		</wpt>
		<wpt lat="35.900530" lon="14.484640">
			<name>New York Best</name>
			<desc></desc>
		</wpt>
		<wpt lat="35.887650" lon="14.521320">
			<name>Collegiate Parish Church of Saint Lawrence</name>
			<desc></desc>
		</wpt>
		<wpt lat="36.031320" lon="14.217560">
			<name>Bonitos</name>
			<desc></desc>
		</wpt>
		<wpt lat="36.053510" lon="14.190690">
			<name>Inland Sea</name>
			<desc></desc>
		</wpt>
		<wpt lat="35.882280" lon="14.398250">
			<name>Shop</name>
			<desc></desc>
		</wpt>
		<wpt lat="35.899280" lon="14.514390">
			<name>Margos</name>
			<desc>pizza</desc>
		</wpt>
		<wpt lat="36.060440" lon="14.283450">
			<name>Fast food</name>
			<desc></desc>
		</wpt>
		<wpt lat="35.918400" lon="14.498680">
			<name>Exiles Club</name>
			<desc></desc>
		</wpt>
		<wpt lat="35.898320" lon="14.513140">
			<name>Eddie's Cafe Regina</name>
			<desc></desc>
		</wpt>
		<wpt lat="36.029670" lon="14.217160">
			<name>Churchill</name>
			<desc></desc>
		</wpt>
		<wpt lat="35.869440" lon="14.506950">
			<name>Hypogeum</name>
			<desc></desc>
		</wpt>
		<wpt lat="35.910060" lon="14.476980">
			<name>Christian</name>
			<desc></desc>
		</wpt>
		<wpt lat="35.912220" lon="14.503060">
			<name>Salisbury Arms</name>
			<desc></desc>
		</wpt>
		<wpt lat="35.915150" lon="14.500530">
			<name>Teatru Salesjan</name>
			<desc></desc>
		</wpt>
		<wpt lat="36.058620" lon="14.220400">
			<name>Religion place</name>
			<desc></desc>
		</wpt>
		<wpt lat="35.923990" lon="14.488990">
			<name>Havana</name>
			<desc></desc>
		</wpt>
		<wpt lat="35.867840" lon="14.440680">
			<name>Monument</name>
			<desc></desc>
		</wpt>
		<wpt lat="35.899530" lon="14.516930">
			<name>Christian</name>
			<desc></desc>
		</wpt>
		<wpt lat="35.903810" lon="14.484610">
			<name>Religion place</name>
			<desc></desc>
		</wpt>
		<wpt lat="35.887140" lon="14.403670">
			<name>Fontanella Tea Garden</name>
			<desc></desc>
		</wpt>
		<wpt lat="35.920820" lon="14.377740">
			<name>Skorba Temples</name>
			<desc></desc>
		</wpt>
		<wpt lat="36.070890" lon="14.259480">
			<name>Glassbox</name>
			<desc></desc>
		</wpt>
		<wpt lat="35.892220" lon="14.508940">
			<name>D-Coffee</name>
			<desc></desc>
		</wpt>
		<wpt lat="35.885790" lon="14.403160">
			<name>Mdina Cafe</name>
			<desc></desc>
		</wpt>
		<wpt lat="35.925020" lon="14.488350">
			<name>Theme park</name>
			<desc></desc>
		</wpt>
		<wpt lat="35.939350" lon="14.457670">
			<name>Malta Marine Park</name>
			<desc></desc>
		</wpt>
		<wpt lat="36.031310" lon="14.218970">
			<name>Le Val D'Or</name>
			<desc></desc>
		</wpt>
		<wpt lat="35.899170" lon="14.513290">
			<name>Malata</name>
			<desc></desc>
		</wpt>
		<wpt lat="35.952630" lon="14.387230">
			<name>St. Joseph Church Xemxija</name>
			<desc></desc>
		</wpt>
		<wpt lat="35.908890" lon="14.428860">
			<name>Christian</name>
			<desc></desc>
		</wpt>
		<wpt lat="36.030840" lon="14.217910">
			<name>Antoinette's</name>
			<desc></desc>
		</wpt>
		<wpt lat="35.881650" lon="14.480380">
			<name>Arteforte</name>
			<desc></desc>
		</wpt>
		<wpt lat="35.883510" lon="14.393750">
			<name>Shop</name>
			<desc></desc>
		</wpt>
		<wpt lat="35.901530" lon="14.350150">
			<name>Sylvia King</name>
			<desc></desc>
		</wpt>
		<wpt lat="35.916990" lon="14.493240">
			<name>Park Towers Supermarkets</name>
			<desc></desc>
		</wpt>
		<wpt lat="35.908880" lon="14.428900">
			<name>Oratorju Qalb ta Gesu</name>
			<desc></desc>
		</wpt>
		<wpt lat="35.917340" lon="14.498920">
			<name>Vino Veritas</name>
			<desc>italian</desc>
		</wpt>
		<wpt lat="35.885910" lon="14.549450">
			<name>Forti tal-Grazzja</name>
			<desc></desc>
		</wpt>
		<wpt lat="35.890700" lon="14.442910">
			<name>Saracino's</name>
			<desc></desc>
		</wpt>
		<wpt lat="36.031390" lon="14.219110">
			<name>Valley View</name>
			<desc></desc>
		</wpt>
		<wpt lat="35.921050" lon="14.380380">
			<name>Knisja Sant' Anna</name>
			<desc></desc>
		</wpt>
		<wpt lat="36.042580" lon="14.240630">
			<name>Pastizzeria Rizzles meals2go</name>
			<desc></desc>
		</wpt>
		<wpt lat="35.905890" lon="14.429780">
			<name>Brema</name>
			<desc></desc>
		</wpt>
		<wpt lat="35.924620" lon="14.487660">
			<name>Hard Rock Café</name>
			<desc>burger</desc>
		</wpt>
		<wpt lat="35.875520" lon="14.466900">
			<name>Cafe Prominent</name>
			<desc></desc>
		</wpt>
		<wpt lat="35.924110" lon="14.489100">
			<name>Subway</name>
			<desc></desc>
		</wpt>
		<wpt lat="35.894560" lon="14.512620">
			<name>Saluting Battery</name>
			<desc></desc>
		</wpt>
		<wpt lat="35.902320" lon="14.464040">
			<name>Religion place</name>
			<desc></desc>
		</wpt>
		<wpt lat="35.903060" lon="14.430650">
			<name>Kappella ta' Mlit</name>
			<desc></desc>
		</wpt>
		<wpt lat="35.862790" lon="14.561840">
			<name>Grabiel</name>
			<desc></desc>
		</wpt>
		<wpt lat="36.034180" lon="14.254480">
			<name>Best Saver</name>
			<desc></desc>
		</wpt>
		<wpt lat="36.066460" lon="14.254480">
			<name>Monument</name>
			<desc></desc>
		</wpt>
		<wpt lat="35.923540" lon="14.489670">
			<name>Burger King</name>
			<desc></desc>
		</wpt>
		<wpt lat="35.914030" lon="14.499150">
			<name>Christian</name>
			<desc></desc>
		</wpt>
		<wpt lat="35.894520" lon="14.532440">
			<name>Fort Rinella</name>
			<desc></desc>
		</wpt>
		<wpt lat="35.872400" lon="14.519580">
			<name>Maypole</name>
			<desc></desc>
		</wpt>
		<wpt lat="35.872270" lon="14.442740">
			<name>Supermarket</name>
			<desc></desc>
		</wpt>
		<wpt lat="35.896940" lon="14.510760">
			<name>Church of Santa Barbara</name>
			<desc></desc>
		</wpt>
		<wpt lat="36.017400" lon="14.271680">
			<name>Restaurant</name>
			<desc></desc>
		</wpt>
		<wpt lat="36.031210" lon="14.217490">
			<name>It-Tmun (closed)</name>
			<desc></desc>
		</wpt>
		<wpt lat="35.951610" lon="14.414350">
			<name>Black &amp; White</name>
			<desc></desc>
		</wpt>
		<wpt lat="35.872110" lon="14.505800">
			<name>Christian</name>
			<desc></desc>
		</wpt>
		<wpt lat="35.915840" lon="14.499450">
			<name>Greengrocer</name>
			<desc></desc>
		</wpt>
		<wpt lat="35.934650" lon="14.344220">
			<name>Agliolio</name>
			<desc></desc>
		</wpt>
		<wpt lat="35.868740" lon="14.554510">
			<name>Kappella Madonna tad-Dawl</name>
			<desc></desc>
		</wpt>
		<wpt lat="35.897230" lon="14.455150">
			<name>Old Smugglers</name>
			<desc></desc>
		</wpt>
		<wpt lat="35.922560" lon="14.490890">
			<name>Eat...</name>
			<desc>italian</desc>
		</wpt>
		<wpt lat="35.862440" lon="14.497420">
			<name>Christian</name>
			<desc></desc>
		</wpt>
		<wpt lat="35.914030" lon="14.494070">
			<name>Memorial</name>
			<desc></desc>
		</wpt>
		<wpt lat="35.930110" lon="14.344780">
			<name>Riviera Martinique Lido</name>
			<desc></desc>
		</wpt>
		<wpt lat="36.046330" lon="14.239650">
			<name>Ta' Rikardu</name>
			<desc></desc>
		</wpt>
		<wpt lat="35.907190" lon="14.510790">
			<name>Cioconut lounge</name>
			<desc></desc>
		</wpt>
		<wpt lat="35.895770" lon="14.510840">
			<name>Inspirations</name>
			<desc></desc>
		</wpt>
		<wpt lat="35.951600" lon="14.413730">
			<name>Restaurant</name>
			<desc></desc>
		</wpt>
		<wpt lat="35.882050" lon="14.399620">
			<name>St. Paul's column</name>
			<desc></desc>
		</wpt>
		<wpt lat="35.893790" lon="14.489040">
			<name>New York Best</name>
			<desc></desc>
		</wpt>
		<wpt lat="35.882660" lon="14.392840">
			<name>Shop</name>
			<desc></desc>
		</wpt>
		<wpt lat="35.872870" lon="14.516560">
			<name>Eda</name>
			<desc></desc>
		</wpt>
		<wpt lat="35.935370" lon="14.458390">
			<name>Christian</name>
			<desc></desc>
		</wpt>
		<wpt lat="35.891070" lon="14.504870">
			<name>Chicken King</name>
			<desc></desc>
		</wpt>
		<wpt lat="35.869140" lon="14.511850">
			<name>Hal Tarxien Prehistoric Temples</name>
			<desc></desc>
		</wpt>
		<wpt lat="36.065340" lon="14.226450">
			<name>Christian</name>
			<desc></desc>
		</wpt>
		<wpt lat="35.939310" lon="14.457710">
			<name>Cafe</name>
			<desc></desc>
		</wpt>
		<wpt lat="36.060820" lon="14.282860">
			<name>It-Rcina tar-Ramla</name>
			<desc></desc>
		</wpt>
		<wpt lat="36.015020" lon="14.335800">
			<name>Christian</name>
			<desc></desc>
		</wpt>
		<wpt lat="35.888280" lon="14.520450">
			<name>Sottovento Ristorante Pizzeria</name>
			<desc>italian</desc>
		</wpt>
		<wpt lat="36.024270" lon="14.288440">
			<name>Cappl</name>
			<desc></desc>
		</wpt>
		<wpt lat="35.861510" lon="14.560460">
			<name>Etna</name>
			<desc></desc>
		</wpt>
		<wpt lat="36.043750" lon="14.238970">
			<name>St. George's Basilica</name>
			<desc></desc>
		</wpt>
		<wpt lat="35.951670" lon="14.414350">
			<name>Victoria Pub and Diner</name>
			<desc></desc>
		</wpt>
		<wpt lat="35.952060" lon="14.383000">
			<name>Phoenician Cart Ruts</name>
			<desc></desc>
		</wpt>
		<wpt lat="36.043620" lon="14.244800">
			<name>Tamarisk</name>
			<desc></desc>
		</wpt>
		<wpt lat="36.024460" lon="14.296150">
			<name>Huan Yuan</name>
			<desc></desc>
		</wpt>
		<wpt lat="35.864910" lon="14.511280">
			<name>Christian</name>
			<desc></desc>
		</wpt>
		<wpt lat="36.037680" lon="14.294330">
			<name>Nadur St. Peter &amp; St. Paul Church</name>
			<desc></desc>
		</wpt>
		<wpt lat="35.883120" lon="14.403670">
			<name>Bar</name>
			<desc></desc>
		</wpt>
		<wpt lat="36.058830" lon="14.226160">
			<name>Ghasri</name>
			<desc></desc>
		</wpt>
		<wpt lat="35.909290" lon="14.428830">
			<name>Green groccer</name>
			<desc></desc>
		</wpt>
		<wpt lat="35.902070" lon="14.419580">
			<name>Razzett l-ahmar</name>
			<desc></desc>
		</wpt>
		<wpt lat="36.051020" lon="14.274640">
			<name>Christian</name>
			<desc></desc>
		</wpt>
		<wpt lat="35.923300" lon="14.475270">
			<name>Ploughman's Pub</name>
			<desc></desc>
		</wpt>
		<wpt lat="36.029000" lon="14.215780">
			<name>Il Terrazzo</name>
			<desc></desc>
		</wpt>
		<wpt lat="35.898930" lon="14.514500">
			<name>D'Office</name>
			<desc>italian</desc>
		</wpt>
		<wpt lat="35.892030" lon="14.471960">
			<name>Madonna tal-Karmnu</name>
			<desc></desc>
		</wpt>
		<wpt lat="36.044640" lon="14.239520">
			<name>It-Tokk</name>
			<desc></desc>
		</wpt>
		<wpt lat="35.875750" lon="14.535570">
			<name>Christian</name>
			<desc></desc>
		</wpt>
		<wpt lat="36.042250" lon="14.241460">
			<name>St Frangisk</name>
			<desc></desc>
		</wpt>
		<wpt lat="35.924360" lon="14.489010">
			<name>More supermarkets - The Axis</name>
			<desc></desc>
		</wpt>
		<wpt lat="35.966640" lon="14.356930">
			<name>Tunnara museum</name>
			<desc></desc>
		</wpt>
		<wpt lat="35.898150" lon="14.452020">
			<name>Kola Store</name>
			<desc></desc>
		</wpt>
		<wpt lat="35.861230" lon="14.572520">
			<name>Torri Ta' San Tumas</name>
			<desc></desc>
		</wpt>
		<wpt lat="36.026160" lon="14.297620">
			<name>Vinotheca</name>
			<desc></desc>
		</wpt>
		<wpt lat="35.915500" lon="14.501070">
			<name>St. Patric</name>
			<desc></desc>
		</wpt>
		<wpt lat="35.960820" lon="14.360860">
			<name>Mellieha Parish Church</name>
			<desc></desc>
		</wpt>
		<wpt lat="35.949640" lon="14.402970">
			<name>St. Paul's Bay Tower</name>
			<desc></desc>
		</wpt>
		<wpt lat="35.887180" lon="14.403610">
			<name>Vinum Wine Bar</name>
			<desc></desc>
		</wpt>
		<wpt lat="35.871220" lon="14.442180">
			<name>Zebbug Parish</name>
			<desc></desc>
		</wpt>
		<wpt lat="35.885180" lon="14.404120">
			<name>Trattoria A.D. 1530</name>
			<desc>regional</desc>
		</wpt>
		<wpt lat="35.908250" lon="14.501180">
			<name>Fast food</name>
			<desc></desc>
		</wpt>
		<wpt lat="35.878380" lon="14.470870">
			<name>Christian</name>
			<desc></desc>
		</wpt>
		<wpt lat="35.921510" lon="14.490660">
			<name>Mr. Maxims</name>
			<desc></desc>
		</wpt>
		<wpt lat="35.887180" lon="14.522410">
			<name>Inquisitor's palace</name>
			<desc></desc>
		</wpt>
		<wpt lat="35.885330" lon="14.403470">
			<name>St. Peter's Monastery Benedictine Nuns</name>
			<desc></desc>
		</wpt>
		<wpt lat="35.883980" lon="14.395660">
			<name>Religion place</name>
			<desc></desc>
		</wpt>
		<wpt lat="35.897110" lon="14.512850">
			<name>Cettina Cafe</name>
			<desc></desc>
		</wpt>
		<wpt lat="35.900940" lon="14.473010">
			<name>Klikk Computers</name>
			<desc></desc>
		</wpt>
		<wpt lat="36.024610" lon="14.295810">
			<name>Ta'Miema</name>
			<desc></desc>
		</wpt>
		<wpt lat="36.034100" lon="14.254900">
			<name>Safeway</name>
			<desc></desc>
		</wpt>
		<wpt lat="35.896290" lon="14.467130">
			<name>Shop</name>
			<desc></desc>
		</wpt>
		<wpt lat="35.860420" lon="14.513260">
			<name>Scotts</name>
			<desc></desc>
		</wpt>
		<wpt lat="35.949680" lon="14.408940">
			<name>Damiano's Pizza Pasta</name>
			<desc></desc>
		</wpt>
		<wpt lat="36.059750" lon="14.209270">
			<name>Folkmuseum</name>
			<desc></desc>
		</wpt>
		<wpt lat="36.059110" lon="14.209810">
			<name>Rangers Snack Bar</name>
			<desc></desc>
		</wpt>
		<wpt lat="35.881470" lon="14.520830">
			<name>Religion place</name>
			<desc></desc>
		</wpt>
		<wpt lat="35.876700" lon="14.439170">
			<name>Christian</name>
			<desc></desc>
		</wpt>
		<wpt lat="35.877140" lon="14.476920">
			<name>San Bastjan</name>
			<desc></desc>
		</wpt>
		<wpt lat="35.888300" lon="14.522080">
			<name>Sapori del Sud</name>
			<desc></desc>
		</wpt>
		<wpt lat="35.949790" lon="14.406560">
			<name>Guillero</name>
			<desc></desc>
		</wpt>
		<wpt lat="36.035560" lon="14.311070">
			<name>Restaurant</name>
			<desc></desc>
		</wpt>
		<wpt lat="36.030790" lon="14.308750">
			<name>Xerri il-Bukkett</name>
			<desc></desc>
		</wpt>
		<wpt lat="36.030770" lon="14.216510">
			<name>Stone Crab</name>
			<desc></desc>
		</wpt>
		<wpt lat="36.037940" lon="14.292970">
			<name>Josies Supermarket</name>
			<desc></desc>
		</wpt>
		<wpt lat="36.025180" lon="14.295100">
			<name>Mgarr</name>
			<desc></desc>
		</wpt>
		<wpt lat="36.045330" lon="14.245770">
			<name>Mall, hotel</name>
			<desc></desc>
		</wpt>
		<wpt lat="35.895060" lon="14.463060">
			<name>Christian</name>
			<desc></desc>
		</wpt>
		<wpt lat="35.887900" lon="14.521860">
			<name>Monument</name>
			<desc></desc>
		</wpt>
		<wpt lat="35.883160" lon="14.403860">
			<name>Bar</name>
			<desc></desc>
		</wpt>
		<wpt lat="35.873730" lon="14.513430">
			<name>Tal-Lira</name>
			<desc></desc>
		</wpt>
		<wpt lat="35.922630" lon="14.490880">
			<name>Il Pirata</name>
			<desc>italian</desc>
		</wpt>
		<wpt lat="35.897390" lon="14.513850">
			<name>St. Paul's Shipwreck</name>
			<desc></desc>
		</wpt>
		<wpt lat="35.907840" lon="14.510340">
			<name>Costa</name>
			<desc></desc>
		</wpt>
		<wpt lat="35.918530" lon="14.368590">
			<name>Ta' Ħaġrat temple</name>
			<desc></desc>
		</wpt>
		<wpt lat="35.913360" lon="14.479850">
			<name>A.P.G. Discount Store</name>
			<desc></desc>
		</wpt>
		<wpt lat="36.040110" lon="14.252050">
			<name>Vinyard</name>
			<desc></desc>
		</wpt>
		<wpt lat="35.902960" lon="14.505230">
			<name>Fort Manoel</name>
			<desc></desc>
		</wpt>
		<wpt lat="36.029820" lon="14.217510">
			<name>Zafiro</name>
			<desc></desc>
		</wpt>
		<wpt lat="35.867860" lon="14.572450">
			<name>Restaurant</name>
			<desc></desc>
		</wpt>
		<wpt lat="36.046600" lon="14.238990">
			<name>Mużew Tax-Xjenza Naturali</name>
			<desc></desc>
		</wpt>
		<wpt lat="35.895070" lon="14.463050">
			<name>Religion place</name>
			<desc></desc>
		</wpt>
		<wpt lat="35.915330" lon="14.495070">
			<name>Barracuda</name>
			<desc></desc>
		</wpt>
		<wpt lat="35.895320" lon="14.449440">
			<name>Melita Resturant</name>
			<desc></desc>
		</wpt>
		<wpt lat="35.914990" lon="14.504760">
			<name>Ta Kolina</name>
			<desc></desc>
		</wpt>
		<wpt lat="35.876310" lon="14.399540">
			<name>Christian</name>
			<desc></desc>
		</wpt>
		<wpt lat="35.920910" lon="14.378880">
			<name>Mgarr bar</name>
			<desc></desc>
		</wpt>
		<wpt lat="36.058430" lon="14.220480">
			<name>Religion place</name>
			<desc></desc>
		</wpt>
		<wpt lat="35.868690" lon="14.511780">
			<name>Graveyard</name>
			<desc></desc>
		</wpt>
		<wpt lat="35.898530" lon="14.450170">
			<name>Macey</name>
			<desc></desc>
		</wpt>
		<wpt lat="35.899840" lon="14.515350">
			<name>Casa Rocca Piccola</name>
			<desc></desc>
		</wpt>
		<wpt lat="36.027610" lon="14.213140">
			<name>Xlendi Tower</name>
			<desc></desc>
		</wpt>
		<wpt lat="35.974670" lon="14.342860">
			<name>St. Agatha's Tower (Red Tower)</name>
			<desc></desc>
		</wpt>
		<wpt lat="35.862400" lon="14.505170">
			<name>Santa Luċija Parish</name>
			<desc></desc>
		</wpt>
		<wpt lat="35.882320" lon="14.398200">
			<name>Fast food</name>
			<desc></desc>
		</wpt>
		<wpt lat="35.878400" lon="14.483070">
			<name>Lidl</name>
			<desc></desc>
		</wpt>
		<wpt lat="35.886980" lon="14.399610">
			<name>Stazzjon</name>
			<desc></desc>
		</wpt>
		<wpt lat="36.078160" lon="14.250790">
			<name>Horizon</name>
			<desc></desc>
		</wpt>
		<wpt lat="35.900840" lon="14.455140">
			<name>Smart Supermarket</name>
			<desc></desc>
		</wpt>
		<wpt lat="35.900510" lon="14.454680">
			<name>B R Guest</name>
			<desc></desc>
		</wpt>
		<wpt lat="35.917210" lon="14.439300">
			<name>Gesu' Hniena Divina</name>
			<desc></desc>
		</wpt>
		<wpt lat="35.898510" lon="14.514270">
			<name>Palace Armoury</name>
			<desc></desc>
		</wpt>
		<wpt lat="35.881180" lon="14.520840">
			<name>Imaculate Conception Church</name>
			<desc></desc>
		</wpt>
		<wpt lat="36.038210" lon="14.296290">
			<name>Al Capone</name>
			<desc></desc>
		</wpt>
		<wpt lat="35.924100" lon="14.488790">
			<name>Hugos Passion</name>
			<desc></desc>
		</wpt>
		<wpt lat="35.872970" lon="14.507300">
			<name>Eusebio Bar</name>
			<desc></desc>
		</wpt>
		<wpt lat="36.043500" lon="14.246240">
			<name>McDonald's</name>
			<desc></desc>
		</wpt>
		<wpt lat="35.928030" lon="14.490410">
			<name>Grill 3301</name>
			<desc></desc>
		</wpt>
		<wpt lat="35.886780" lon="14.403090">
			<name>Rosmarino</name>
			<desc></desc>
		</wpt>
		<wpt lat="35.886510" lon="14.487190">
			<name>Hamrun Chuch - San Gaetano</name>
			<desc></desc>
		</wpt>
		<wpt lat="35.885190" lon="14.404210">
			<name>De Mondion</name>
			<desc></desc>
		</wpt>
		<wpt lat="35.892020" lon="14.518210">
			<name>Fort Saint Angelo</name>
			<desc></desc>
		</wpt>
		<wpt lat="35.957200" lon="14.362340">
			<name>Tosca</name>
			<desc>italian</desc>
		</wpt>
		<wpt lat="35.907650" lon="14.498930">
			<name>Fast food</name>
			<desc></desc>
		</wpt>
		<wpt lat="35.891750" lon="14.485030">
			<name>Lidl</name>
			<desc></desc>
		</wpt>
		<wpt lat="35.924120" lon="14.490890">
			<name>Giardino Italiano</name>
			<desc>italian</desc>
		</wpt>
		<wpt lat="36.044620" lon="14.291670">
			<name>Johny's Supermarket</name>
			<desc></desc>
		</wpt>
		<wpt lat="36.045010" lon="14.237970">
			<name>Christian</name>
			<desc></desc>
		</wpt>
		<wpt lat="35.885470" lon="14.522550">
			<name>Couvre de Porte</name>
			<desc></desc>
		</wpt>
		<wpt lat="35.881700" lon="14.401400">
			<name>Christian</name>
			<desc></desc>
		</wpt>
		<wpt lat="35.893030" lon="14.477280">
			<name>Park Towers</name>
			<desc></desc>
		</wpt>
		<wpt lat="35.886260" lon="14.402840">
			<name>Medina Restaurant</name>
			<desc></desc>
		</wpt>
		<wpt lat="35.898630" lon="14.512340">
			<name>Costa</name>
			<desc></desc>
		</wpt>
		<wpt lat="35.899040" lon="14.476480">
			<name>Swatar Parish Church</name>
			<desc></desc>
		</wpt>
		<wpt lat="35.955450" lon="14.368150">
			<name>Crosskeys</name>
			<desc></desc>
		</wpt>
		<wpt lat="35.946630" lon="14.408190">
			<name>Shop</name>
			<desc></desc>
		</wpt>
		<wpt lat="35.893510" lon="14.508670">
			<name>Memorial</name>
			<desc></desc>
		</wpt>
		<wpt lat="36.023490" lon="14.243840">
			<name>Marsilja</name>
			<desc></desc>
		</wpt>
		<wpt lat="36.034300" lon="14.263190">
			<name>Maribu Restaurant</name>
			<desc></desc>
		</wpt>
		<wpt lat="35.923870" lon="14.453520">
			<name>Gharghur</name>
			<desc></desc>
		</wpt>
		<wpt lat="35.896370" lon="14.513410">
			<name>Ta' Giezu Church</name>
			<desc></desc>
		</wpt>
		<wpt lat="35.915970" lon="14.493140">
			<name>Cafe Ole</name>
			<desc></desc>
		</wpt>
		<wpt lat="35.891830" lon="14.478820">
			<name>St. Venera Old</name>
			<desc></desc>
		</wpt>
		<wpt lat="36.024920" lon="14.296190">
			<name>Horatio's Tavern</name>
			<desc></desc>
		</wpt>
		<wpt lat="35.956800" lon="14.362350">
			<name>Supermarket</name>
			<desc></desc>
		</wpt>
		<wpt lat="35.895070" lon="14.513340">
			<name>Christian</name>
			<desc></desc>
		</wpt>
		<wpt lat="36.024370" lon="14.296690">
			<name>Gleneagles</name>
			<desc></desc>
		</wpt>
		<wpt lat="35.882930" lon="14.390580">
			<name>Sim's Market</name>
			<desc></desc>
		</wpt>
		<wpt lat="36.025700" lon="14.287950">
			<name>Supermarket</name>
			<desc></desc>
		</wpt>
		<wpt lat="35.981790" lon="14.331770">
			<name>Paradise Bay Lido</name>
			<desc></desc>
		</wpt>
		<wpt lat="35.860960" lon="14.382990">
			<name>1640</name>
			<desc></desc>
		</wpt>
		<wpt lat="35.873920" lon="14.504350">
			<name>Maxman</name>
			<desc></desc>
		</wpt>
		<wpt lat="35.916240" lon="14.490110">
			<name>St. Julian The Hospitaller Church</name>
			<desc></desc>
		</wpt>
		<wpt lat="36.058280" lon="14.220320">
			<name>Religion place</name>
			<desc></desc>
		</wpt>
		<wpt lat="35.892140" lon="14.469620">
			<name>Shop</name>
			<desc></desc>
		</wpt>
		<wpt lat="35.965650" lon="14.400280">
			<name>Statue of St.Paul</name>
			<desc></desc>
		</wpt>
		<wpt lat="35.953070" lon="14.419350">
			<name>Trolees</name>
			<desc></desc>
		</wpt>
		<wpt lat="35.896820" lon="14.515140">
			<name>St. Ursula Church</name>
			<desc></desc>
		</wpt>
		<wpt lat="35.875880" lon="14.508840">
			<name>Mariam Al-Batool Mosque</name>
			<desc></desc>
		</wpt>
		<wpt lat="35.898720" lon="14.513210">
			<name>Café Cordina</name>
			<desc></desc>
		</wpt>
		<wpt lat="36.060610" lon="14.217480">
			<name>Religion place</name>
			<desc></desc>
		</wpt>
		<wpt lat="35.896680" lon="14.509750">
			<name>Café Royale</name>
			<desc></desc>
		</wpt>
		<wpt lat="35.907540" lon="14.493730">
			<name>Text1</name>
			<desc></desc>
		</wpt>
		<wpt lat="36.045980" lon="14.239580">
			<name>Museum of Archaeology</name>
			<desc></desc>
		</wpt>
		<wpt lat="35.960880" lon="14.341470">
			<name>Restaurant</name>
			<desc></desc>
		</wpt>
		<wpt lat="35.884900" lon="14.400060">
			<name>Peristyle</name>
			<desc>regional</desc>
		</wpt>
		<wpt lat="35.913890" lon="14.480170">
			<name>Santwarju tal-Madonna tal-Minsija</name>
			<desc></desc>
		</wpt>
		<wpt lat="36.050120" lon="14.237260">
			<name>Brookies</name>
			<desc></desc>
		</wpt>
		<wpt lat="36.030420" lon="14.235010">
			<name>Supermarket</name>
			<desc></desc>
		</wpt>
		<wpt lat="35.883770" lon="14.403380">
			<name>Pub</name>
			<desc></desc>
		</wpt>
		<wpt lat="36.040440" lon="14.265910">
			<name>Christian</name>
			<desc></desc>
		</wpt>
		<wpt lat="35.955240" lon="14.420640">
			<name>Classic Car Museum</name>
			<desc></desc>
		</wpt>
		<wpt lat="35.923870" lon="14.491130">
			<name>Gozitan</name>
			<desc>regional</desc>
		</wpt>
		<wpt lat="36.076900" lon="14.251490">
			<name>Chez Amand</name>
			<desc></desc>
		</wpt>
		<wpt lat="35.873770" lon="14.511200">
			<name>Antonio Piscopo Co. Ltd</name>
			<desc></desc>
		</wpt>
		<wpt lat="35.908260" lon="14.501030">
			<name>Tex-Mex</name>
			<desc>mexican</desc>
		</wpt>
		<wpt lat="35.900050" lon="14.465350">
			<name>Christian</name>
			<desc></desc>
		</wpt>
		<wpt lat="36.038710" lon="14.260020">
			<name>Cini Tal-Mija</name>
			<desc></desc>
		</wpt>
		<wpt lat="35.919530" lon="14.366170">
			<name>Christian</name>
			<desc></desc>
		</wpt>
		<wpt lat="35.897190" lon="14.511060">
			<name>St. Barbara Church</name>
			<desc></desc>
		</wpt>
		<wpt lat="36.072960" lon="14.236540">
			<name>Saliba Store</name>
			<desc></desc>
		</wpt>
		<wpt lat="36.045110" lon="14.239000">
			<name>Citadel Theatre</name>
			<desc></desc>
		</wpt>
		<wpt lat="36.071280" lon="14.258390">
			<name>L'Aragosta</name>
			<desc></desc>
		</wpt>
		<wpt lat="35.908210" lon="14.429390">
			<name>Shop</name>
			<desc></desc>
		</wpt>
		<wpt lat="36.024030" lon="14.288000">
			<name>Rexy</name>
			<desc></desc>
		</wpt>
		<wpt lat="36.070060" lon="14.259950">
			<name>Jessica's Delights</name>
			<desc></desc>
		</wpt>
		<wpt lat="35.885470" lon="14.491380">
			<name>Daniel's Shopping Complex</name>
			<desc></desc>
		</wpt>
		<wpt lat="35.899380" lon="14.516330">
			<name>St Dominic' Snack Bar</name>
			<desc></desc>
		</wpt>
		<wpt lat="35.897390" lon="14.510730">
			<name>St. Francis of Assisi</name>
			<desc></desc>
		</wpt>
		<wpt lat="35.887900" lon="14.548640">
			<name>El Catalan</name>
			<desc></desc>
		</wpt>
		<wpt lat="36.035850" lon="14.310980">
			<name>D-Bar</name>
			<desc>regional</desc>
		</wpt>
		<wpt lat="36.030800" lon="14.234520">
			<name>Munxar Parish Church</name>
			<desc></desc>
		</wpt>
		<wpt lat="35.873390" lon="14.521660">
			<name>Dino</name>
			<desc></desc>
		</wpt>
		<wpt lat="35.907600" lon="14.431040">
			<name>Christian</name>
			<desc></desc>
		</wpt>
		<wpt lat="35.863630" lon="14.513650">
			<name>Self Standa II</name>
			<desc></desc>
		</wpt>
		<wpt lat="35.953460" lon="14.420110">
			<name>Churchill's</name>
			<desc></desc>
		</wpt>
		<wpt lat="35.952410" lon="14.411630">
			<name>La Krepree</name>
			<desc></desc>
		</wpt>
		<wpt lat="35.888040" lon="14.522240">
			<name>Bebirgu / San Lawrenz Band Club Palazzo</name>
			<desc>regional</desc>
		</wpt>
		<wpt lat="35.922290" lon="14.492050">
			<name>Omm Tal-Parir It-Tajjeb</name>
			<desc></desc>
		</wpt>
		<wpt lat="35.909730" lon="14.506080">
			<name>Plaza Shopping Centre</name>
			<desc></desc>
		</wpt>
		<wpt lat="35.894670" lon="14.469290">
			<name>Andrew's Snack Bar</name>
			<desc></desc>
		</wpt>
		<wpt lat="36.031650" lon="14.261020">
			<name>Xewkija Rotunda Church</name>
			<desc>One of the largest domes in Europe, it can be seen from many places on the island. It was built between 1952 and 1978.</desc>
		</wpt>
		<wpt lat="36.044410" lon="14.240970">
			<name>Tal-Lajku Dolceria + Pastizzeria</name>
			<desc></desc>
		</wpt>
		<wpt lat="35.949870" lon="14.381250">
			<name>Phoenician Tombs</name>
			<desc></desc>
		</wpt>
		<wpt lat="36.060210" lon="14.217880">
			<name>Religion place</name>
			<desc></desc>
		</wpt>
		<wpt lat="35.896690" lon="14.491280">
			<name>Busy Bee</name>
			<desc></desc>
		</wpt>
		<wpt lat="35.926000" lon="14.455410">
			<name>Taz-zellieqa chapel</name>
			<desc></desc>
		</wpt>
		<wpt lat="35.900050" lon="14.484560">
			<name>Lo Spuntino CAfe</name>
			<desc></desc>
		</wpt>
		<wpt lat="35.937780" lon="14.411250">
			<name>Scotts</name>
			<desc></desc>
		</wpt>
		<wpt lat="35.883630" lon="14.364260">
			<name>Rogantino's</name>
			<desc>regional</desc>
		</wpt>
		<wpt lat="36.045610" lon="14.235250">
			<name>Memorial</name>
			<desc></desc>
		</wpt>
		<wpt lat="35.909300" lon="14.425430">
			<name>Cafe</name>
			<desc></desc>
		</wpt>
		<wpt lat="35.923940" lon="14.491810">
			<name>Shiva's</name>
			<desc>indian</desc>
		</wpt>
		<wpt lat="36.044640" lon="14.240560">
			<name>Libertas</name>
			<desc></desc>
		</wpt>
		<wpt lat="35.897060" lon="14.437720">
			<name>Christian</name>
			<desc></desc>
		</wpt>
		<wpt lat="35.896920" lon="14.509510">
			<name>Subway</name>
			<desc></desc>
		</wpt>
		<wpt lat="35.898630" lon="14.514970">
			<name>La Mère</name>
			<desc>Arabian, Maltese and middle east fusion restaurant</desc>
		</wpt>
		<wpt lat="36.030600" lon="14.217620">
			<name>Cseven</name>
			<desc></desc>
		</wpt>
		<wpt lat="36.077490" lon="14.251170">
			<name>Sea Coast</name>
			<desc></desc>
		</wpt>
		<wpt lat="35.913260" lon="14.439700">
			<name>Miracle Foods</name>
			<desc></desc>
		</wpt>
		<wpt lat="35.881820" lon="14.398130">
			<name>Christian</name>
			<desc></desc>
		</wpt>
		<wpt lat="35.883480" lon="14.399830">
			<name>San Andrea</name>
			<desc></desc>
		</wpt>
		<wpt lat="35.881440" lon="14.395790">
			<name>Religion place</name>
			<desc></desc>
		</wpt>
		<wpt lat="35.862240" lon="14.505060">
			<name>St. Pius X Parish Church</name>
			<desc></desc>
		</wpt>
		<wpt lat="36.046880" lon="14.244090">
			<name>G &amp; R</name>
			<desc></desc>
		</wpt>
		<wpt lat="35.860430" lon="14.381540">
			<name>Dingli Parish Church</name>
			<desc></desc>
		</wpt>
		<wpt lat="35.902020" lon="14.518810">
			<name>Fort St. Elmo</name>
			<desc>Crusador castle dating from 1533</desc>
		</wpt>
		<wpt lat="35.960420" lon="14.361250">
			<name>Sanctuary of Our Lady of Mellieha</name>
			<desc></desc>
		</wpt>
		<wpt lat="36.061130" lon="14.217160">
			<name>Religion place</name>
			<desc></desc>
		</wpt>
		<wpt lat="35.884540" lon="14.397390">
			<name>Da Luigi</name>
			<desc></desc>
		</wpt>
		<wpt lat="35.948070" lon="14.408740">
			<name>Shop</name>
			<desc></desc>
		</wpt>
		<wpt lat="35.865920" lon="14.564190">
			<name>Marsascala Parish</name>
			<desc></desc>
		</wpt>
		<wpt lat="35.904270" lon="14.495770">
			<name>Fast food</name>
			<desc></desc>
		</wpt>
		<wpt lat="35.899770" lon="14.512590">
			<name>Manoel Theatre</name>
			<desc></desc>
		</wpt>
		<wpt lat="36.027420" lon="14.216770">
			<name>Da Manuel</name>
			<desc></desc>
		</wpt>
		<wpt lat="36.061890" lon="14.214930">
			<name>Basilica of the Blessed Virgin Of Ta' Pinu</name>
			<desc></desc>
		</wpt>
		<wpt lat="35.883270" lon="14.400100">
			<name>Christian</name>
			<desc></desc>
		</wpt>
		<wpt lat="35.950950" lon="14.414070">
			<name>The Heritage</name>
			<desc></desc>
		</wpt>
		<wpt lat="36.024170" lon="14.243730">
			<name>Muscat</name>
			<desc></desc>
		</wpt>
		<wpt lat="35.893890" lon="14.488410">
			<name>Curly Wurly</name>
			<desc></desc>
		</wpt>
		<wpt lat="35.919680" lon="14.366560">
			<name>Il-Barri</name>
			<desc>regional</desc>
		</wpt>
		<wpt lat="36.030960" lon="14.217260">
			<name>Nemo</name>
			<desc></desc>
		</wpt>
		<wpt lat="35.907860" lon="14.476910">
			<name>San Gwann Parish</name>
			<desc></desc>
		</wpt>
		<wpt lat="35.903160" lon="14.505130">
			<name>Christian</name>
			<desc></desc>
		</wpt>
		<wpt lat="35.911930" lon="14.496160">
			<name>Venture Trading</name>
			<desc></desc>
		</wpt>
		<wpt lat="35.897130" lon="14.509960">
			<name>Pizza Hut</name>
			<desc></desc>
		</wpt>
		<wpt lat="35.909860" lon="14.424890">
			<name>Ix-xufi</name>
			<desc></desc>
		</wpt>
		<wpt lat="35.895630" lon="14.511640">
			<name>Cafe Castille</name>
			<desc></desc>
		</wpt>
		<wpt lat="35.868650" lon="14.512100">
			<name>Christian</name>
			<desc></desc>
		</wpt>
		<wpt lat="35.898650" lon="14.513970">
			<name>The State Rooms</name>
			<desc></desc>
		</wpt>
		<wpt lat="35.890490" lon="14.472720">
			<name>Shop</name>
			<desc></desc>
		</wpt>
		<wpt lat="35.904340" lon="14.414920">
			<name>Restaurant</name>
			<desc></desc>
		</wpt>
		<wpt lat="36.071030" lon="14.204620">
			<name>San Dimitri</name>
			<desc></desc>
		</wpt>
		<wpt lat="35.901720" lon="14.489560">
			<name>K-Mart</name>
			<desc></desc>
		</wpt>
		<wpt lat="36.038120" lon="14.296210">
			<name>Mahrag</name>
			<desc></desc>
		</wpt>
		<wpt lat="35.898730" lon="14.514690">
			<name>The Pub</name>
			<desc></desc>
		</wpt>
		<wpt lat="35.861550" lon="14.384030">
			<name>Shop</name>
			<desc></desc>
		</wpt>
		<wpt lat="35.955470" lon="14.368600">
			<name>Shoppers</name>
			<desc></desc>
		</wpt>
		<wpt lat="35.873760" lon="14.406720">
			<name>Tal-Virtu Chapel</name>
			<desc></desc>
		</wpt>
		<wpt lat="35.897810" lon="14.516570">
			<name>Il-Horza</name>
			<desc></desc>
		</wpt>
		<wpt lat="35.923470" lon="14.492070">
			<name>Buon Cafe</name>
			<desc></desc>
		</wpt>
		<wpt lat="35.883570" lon="14.403460">
			<name>Restaurant</name>
			<desc></desc>
		</wpt>
		<wpt lat="36.034100" lon="14.251250">
			<name>Strawberry</name>
			<desc></desc>
		</wpt>
		<wpt lat="35.892400" lon="14.422330">
			<name>Theatre</name>
			<desc></desc>
		</wpt>
		<wpt lat="36.038240" lon="14.295330">
			<name>Museum</name>
			<desc></desc>
		</wpt>
		<wpt lat="35.888330" lon="14.528920">
			<name>St. Joseph Church</name>
			<desc></desc>
		</wpt>
		<wpt lat="35.920760" lon="14.379200">
			<name>The ark</name>
			<desc></desc>
		</wpt>
		<wpt lat="35.887610" lon="14.524470">
			<name>Bastion Castille</name>
			<desc></desc>
		</wpt>
		<wpt lat="35.915170" lon="14.493220">
			<name>WIGI'S KITCHEN</name>
			<desc>regional</desc>
		</wpt>
		<wpt lat="35.882220" lon="14.468330">
			<name>San Gorg</name>
			<desc></desc>
		</wpt>
		<wpt lat="35.895740" lon="14.510330">
			<name>St. James Cavalier</name>
			<desc></desc>
		</wpt>
		<wpt lat="35.883870" lon="14.396000">
			<name>Shop</name>
			<desc></desc>
		</wpt>
		<wpt lat="35.921690" lon="14.490540">
			<name>Holland &amp; Barret</name>
			<desc></desc>
		</wpt>
		<wpt lat="36.030740" lon="14.216700">
			<name>Boathouse</name>
			<desc></desc>
		</wpt>
		<wpt lat="36.071140" lon="14.260880">
			<name>Bo Jangles</name>
			<desc></desc>
		</wpt>
		<wpt lat="36.052530" lon="14.189990">
			<name>Papa Leli's</name>
			<desc></desc>
		</wpt>
		<wpt lat="36.026740" lon="14.242920">
			<name>Christian</name>
			<desc></desc>
		</wpt>
		<wpt lat="35.877160" lon="14.509040">
			<name>Kordin III prehistroic temple</name>
			<desc></desc>
		</wpt>
		<wpt lat="36.038260" lon="14.292670">
			<name>Christian</name>
			<desc></desc>
		</wpt>
		<wpt lat="35.906160" lon="14.513340">
			<name>Fort Tigne</name>
			<desc></desc>
		</wpt>
		<wpt lat="35.868650" lon="14.500220">
			<name>Religion place</name>
			<desc></desc>
		</wpt>
		<wpt lat="35.952190" lon="14.409900">
			<name>The Pearsons</name>
			<desc></desc>
		</wpt>
		<wpt lat="35.923830" lon="14.489190">
			<name>Soho</name>
			<desc></desc>
		</wpt>
		<wpt lat="35.912740" lon="14.434610">
			<name>Scotts</name>
			<desc></desc>
		</wpt>
		<wpt lat="35.898700" lon="14.450870">
			<name>Kazin tal-Banda San Gabriel</name>
			<desc></desc>
		</wpt>
		<wpt lat="36.039100" lon="14.236550">
			<name>Christian</name>
			<desc></desc>
		</wpt>
		<wpt lat="35.904670" lon="14.410400">
			<name>Christian</name>
			<desc></desc>
		</wpt>
		<wpt lat="35.898970" lon="14.451450">
			<name>Fra Guzeppe Wine Bar</name>
			<desc></desc>
		</wpt>
		<wpt lat="35.861510" lon="14.400660">
			<name>Verdala Palace</name>
			<desc></desc>
		</wpt>
		<wpt lat="35.934330" lon="14.346070">
			<name>Apple's Eye</name>
			<desc></desc>
		</wpt>
		<wpt lat="36.039930" lon="14.312130">
			<name>Il Wileg</name>
			<desc></desc>
		</wpt>
		<wpt lat="36.024800" lon="14.296640">
			<name>Manoel's</name>
			<desc></desc>
		</wpt>
		<wpt lat="35.916760" lon="14.499060">
			<name>Amigos</name>
			<desc></desc>
		</wpt>
		<wpt lat="35.890750" lon="14.409990">
			<name>Graveyard</name>
			<desc></desc>
		</wpt>
		<wpt lat="35.872250" lon="14.507490">
			<name>Fast food</name>
			<desc></desc>
		</wpt>
		<wpt lat="36.045020" lon="14.239010">
			<name>Palazzo Antonin</name>
			<desc></desc>
		</wpt>
		<wpt lat="35.913850" lon="14.506180">
			<name>Nina's</name>
			<desc>italian</desc>
		</wpt>
		<wpt lat="35.888350" lon="14.528790">
			<name>Christian</name>
			<desc></desc>
		</wpt>
		<wpt lat="35.878290" lon="14.400680">
			<name>Christian</name>
			<desc></desc>
		</wpt>
		<wpt lat="35.924390" lon="14.488350">
			<name>Native</name>
			<desc></desc>
		</wpt>
		<wpt lat="35.896710" lon="14.490000">
			<name>Christian</name>
			<desc></desc>
		</wpt>
		<wpt lat="35.918140" lon="14.489020">
			<name>Scotts Supermarket</name>
			<desc></desc>
		</wpt>
		<wpt lat="35.895090" lon="14.346870">
			<name>Restaurant</name>
			<desc></desc>
		</wpt>
		<wpt lat="35.886700" lon="14.487330">
			<name>St. Geatan</name>
			<desc></desc>
		</wpt>
		<wpt lat="36.061770" lon="14.208830">
			<name>Savina</name>
			<desc></desc>
		</wpt>
		<wpt lat="36.037180" lon="14.293140">
			<name>The Kelinu Grima Maritime Museum</name>
			<desc></desc>
		</wpt>
		<wpt lat="35.986460" lon="14.331720">
			<name>Shop</name>
			<desc></desc>
		</wpt>
		<wpt lat="36.035420" lon="14.311690">
			<name>Kaputa</name>
			<desc>pizza</desc>
		</wpt>
		<wpt lat="35.899780" lon="14.512880">
			<name>Rubino</name>
			<desc></desc>
		</wpt>
		<wpt lat="35.887180" lon="14.520990">
			<name>Freedom Hill</name>
			<desc></desc>
		</wpt>
		<wpt lat="35.950050" lon="14.409220">
			<name>Portobello</name>
			<desc></desc>
		</wpt>
		<wpt lat="35.887160" lon="14.402280">
			<name>Sharma Ethnic Cuisines</name>
			<desc></desc>
		</wpt>
		<wpt lat="36.052920" lon="14.189950">
			<name>St Anna</name>
			<desc></desc>
		</wpt>
		<wpt lat="35.896940" lon="14.457240">
			<name>Costa Coffee</name>
			<desc></desc>
		</wpt>
		<wpt lat="35.941250" lon="14.419710">
			<name>Bird Park Malta</name>
			<desc></desc>
		</wpt>
		<wpt lat="35.908460" lon="14.506890">
			<name>Christian</name>
			<desc></desc>
		</wpt>
		<wpt lat="35.883810" lon="14.395330">
			<name>Shop</name>
			<desc></desc>
		</wpt>
		<wpt lat="35.881340" lon="14.519020">
			<name>St Paul's Chapel</name>
			<desc></desc>
		</wpt>
		<wpt lat="36.049820" lon="14.266770">
			<name>Ta' Kola Windmill</name>
			<desc></desc>
		</wpt>
		<wpt lat="35.923350" lon="14.491850">
			<name>Rock Cafe - Elements</name>
			<desc></desc>
		</wpt>
		<wpt lat="36.071510" lon="14.260990">
			<name>Christian</name>
			<desc></desc>
		</wpt>
		<wpt lat="35.895220" lon="14.512040">
			<name>Cafe Barrakka</name>
			<desc></desc>
		</wpt>
		<wpt lat="35.910320" lon="14.424430">
			<name>Ta' Marija Restaurant</name>
			<desc></desc>
		</wpt>
		<wpt lat="36.060140" lon="14.208800">
			<name>Gharb Parish Church</name>
			<desc></desc>
		</wpt>
		<wpt lat="35.965800" lon="14.357240">
			<name>Stan's</name>
			<desc></desc>
		</wpt>
		<wpt lat="35.911310" lon="14.507180">
			<name>New York Best</name>
			<desc></desc>
		</wpt>
		<wpt lat="36.024590" lon="14.281410">
			<name>Graveyard</name>
			<desc></desc>
		</wpt>
		<wpt lat="35.894090" lon="14.441790">
			<name>Scotts</name>
			<desc></desc>
		</wpt>
		<wpt lat="36.036260" lon="14.310830">
			<name>Simpatia</name>
			<desc></desc>
		</wpt>
		<wpt lat="35.947330" lon="14.382990">
			<name>Munchy Monkey</name>
			<desc>pizza</desc>
		</wpt>
		<wpt lat="35.887200" lon="14.524130">
			<name>St. James Cavalier (tower)</name>
			<desc></desc>
		</wpt>
		<wpt lat="35.895830" lon="14.489540">
			<name>Coffe</name>
			<desc></desc>
		</wpt>
		<wpt lat="36.045250" lon="14.238990">
			<name>Castle Bar</name>
			<desc></desc>
		</wpt>
		<wpt lat="35.886210" lon="14.546190">
			<name>Christian</name>
			<desc></desc>
		</wpt>
		<wpt lat="35.885950" lon="14.402080">
			<name>Christian</name>
			<desc></desc>
		</wpt>
		<wpt lat="36.072390" lon="14.261170">
			<name>La Pulena</name>
			<desc>italian</desc>
		</wpt>
		<wpt lat="36.059140" lon="14.219080">
			<name>Religion place</name>
			<desc></desc>
		</wpt>
		<wpt lat="35.883350" lon="14.403660">
			<name>Point de Vue</name>
			<desc></desc>
		</wpt>
		<wpt lat="35.906340" lon="14.497390">
			<name>Subway</name>
			<desc></desc>
		</wpt>
		<wpt lat="36.035190" lon="14.297060">
			<name>Martin's</name>
			<desc>regional</desc>
		</wpt>
		<wpt lat="35.946990" lon="14.382850">
			<name>Xemxija cafe</name>
			<desc></desc>
		</wpt>
		<wpt lat="36.017280" lon="14.274460">
			<name>Mgarr ix-Xini Tower</name>
			<desc></desc>
		</wpt>
		<wpt lat="35.886130" lon="14.522950">
			<name>St. John's Cavalier (tower)</name>
			<desc></desc>
		</wpt>
		<wpt lat="35.916640" lon="14.493870">
			<name>Bar Restaurant Sir Alex</name>
			<desc></desc>
		</wpt>
		<wpt lat="35.914980" lon="14.444240">
			<name>Palazzo Parisio &amp; Gardens</name>
			<desc></desc>
		</wpt>
		<wpt lat="35.954770" lon="14.417610">
			<name>L' Chaim</name>
			<desc></desc>
		</wpt>
		<wpt lat="36.036430" lon="14.311400">
			<name>Shop</name>
			<desc></desc>
		</wpt>
		<wpt lat="35.914110" lon="14.489280">
			<name>Shop</name>
			<desc></desc>
		</wpt>
		<wpt lat="35.888130" lon="14.520520">
			<name>Two and a half lemon</name>
			<desc></desc>
		</wpt>
		<wpt lat="36.040710" lon="14.240040">
			<name>Christian</name>
			<desc></desc>
		</wpt>
		<wpt lat="36.052460" lon="14.190530">
			<name>Restaurant</name>
			<desc></desc>
		</wpt>
		<wpt lat="35.895000" lon="14.347010">
			<name>Ta Gagin</name>
			<desc>regional</desc>
		</wpt>
		<wpt lat="36.042670" lon="14.249880">
			<name>Christian</name>
			<desc></desc>
		</wpt>
		<wpt lat="36.042730" lon="14.246020">
			<name>Flamingo</name>
			<desc></desc>
		</wpt>
		<wpt lat="36.033420" lon="14.228010">
			<name>Ping's Dining (closed)</name>
			<desc>chinese</desc>
		</wpt>
		<wpt lat="35.897610" lon="14.509700">
			<name>St. Andrews Scots Church</name>
			<desc></desc>
		</wpt>
		<wpt lat="35.886690" lon="14.402850">
			<name>Carmelite Church</name>
			<desc></desc>
		</wpt>
		<wpt lat="35.876950" lon="14.509700">
			<name>Sant Antnin Church, Ghajn Dwieli</name>
			<desc></desc>
		</wpt>
		<wpt lat="35.897180" lon="14.512970">
			<name>Albert</name>
			<desc></desc>
		</wpt>
		<wpt lat="35.914820" lon="14.499400">
			<name>Borg's Victory Store</name>
			<desc></desc>
		</wpt>
		<wpt lat="35.899960" lon="14.515010">
			<name>Christian</name>
			<desc></desc>
		</wpt>
		<wpt lat="35.872200" lon="14.507270">
			<name>Happy Pizza</name>
			<desc></desc>
		</wpt>
		<wpt lat="35.957210" lon="14.380410">
			<name>Selmun Chapel</name>
			<desc></desc>
		</wpt>
		<wpt lat="35.952510" lon="14.410970">
			<name>McDonalds</name>
			<desc></desc>
		</wpt>
		<wpt lat="35.947580" lon="14.381920">
			<name>Aqua</name>
			<desc></desc>
		</wpt>
		<wpt lat="35.877080" lon="14.508950">
			<name>Archaeological site</name>
			<desc></desc>
		</wpt>
		<wpt lat="36.061210" lon="14.203790">
			<name>Taz-Zejt</name>
			<desc></desc>
		</wpt>
		<wpt lat="36.071720" lon="14.260910">
			<name>Smuggler's Cave</name>
			<desc></desc>
		</wpt>
		<wpt lat="35.898680" lon="14.510790">
			<name>St. Augustine</name>
			<desc></desc>
		</wpt>
		<wpt lat="36.071590" lon="14.258020">
			<name>Kartell</name>
			<desc></desc>
		</wpt>
		<wpt lat="35.973530" lon="14.349700">
			<name>Costa del Sol</name>
			<desc></desc>
		</wpt>
		<wpt lat="36.030870" lon="14.216540">
			<name>Ta' Carolina</name>
			<desc></desc>
		</wpt>
		<wpt lat="36.022940" lon="14.249260">
			<name>L-Iskoll</name>
			<desc></desc>
		</wpt>
		<wpt lat="35.871910" lon="14.440730">
			<name>Christian</name>
			<desc></desc>
		</wpt>
		<wpt lat="35.900200" lon="14.484470">
			<name>Pizza by Luca Experess Pizzeria</name>
			<desc>pizza</desc>
		</wpt>
		<wpt lat="36.026200" lon="14.289320">
			<name>Għajnsielem</name>
			<desc></desc>
		</wpt>
		<wpt lat="35.926520" lon="14.398880">
			<name>Christian</name>
			<desc></desc>
		</wpt>
		<wpt lat="35.898880" lon="14.514620">
			<name>Christian</name>
			<desc></desc>
		</wpt>
		<wpt lat="35.967430" lon="14.351910">
			<name>San Remo</name>
			<desc></desc>
		</wpt>
		<wpt lat="36.043600" lon="14.246480">
			<name>Arkadia</name>
			<desc></desc>
		</wpt>
		<wpt lat="35.917820" lon="14.489660">
			<name>St. Julians Parish Chruch</name>
			<desc></desc>
		</wpt>
		<wpt lat="36.046580" lon="14.239720">
			<name>Mużew Tal-Folklor</name>
			<desc></desc>
		</wpt>
		<wpt lat="35.872920" lon="14.521630">
			<name>Just Paint</name>
			<desc></desc>
		</wpt>
		<wpt lat="35.926940" lon="14.357470">
			<name>Roman Baths</name>
			<desc></desc>
		</wpt>
		<wpt lat="35.888240" lon="14.522170">
			<name>Cafe du Brazil</name>
			<desc></desc>
		</wpt>
		<wpt lat="35.884080" lon="14.468280">
			<name>Kappella Ta' Fuq tal-Blat</name>
			<desc></desc>
		</wpt>
		<wpt lat="35.889660" lon="14.515360">
			<name>Christian</name>
			<desc></desc>
		</wpt>
		<wpt lat="35.916790" lon="14.493450">
			<name>Swedish Delights</name>
			<desc></desc>
		</wpt>
		<wpt lat="35.885400" lon="14.399950">
			<name>Roman Villa</name>
			<desc></desc>
		</wpt>
		<wpt lat="35.950680" lon="14.412690">
			<name>Whyte Harte</name>
			<desc></desc>
		</wpt>
		<wpt lat="35.886840" lon="14.404110">
			<name>Palazzo de Piro</name>
			<desc></desc>
		</wpt>
		<wpt lat="35.950660" lon="14.416860">
			<name>Pub</name>
			<desc></desc>
		</wpt>
		<wpt lat="35.909090" lon="14.506280">
			<name>Ta' Kris</name>
			<desc></desc>
		</wpt>
		<wpt lat="35.918750" lon="14.491220">
			<name>Café Bezz</name>
			<desc></desc>
		</wpt>
		<wpt lat="35.908100" lon="14.500470">
			<name>Chequers</name>
			<desc></desc>
		</wpt>
		<wpt lat="35.885410" lon="14.401330">
			<name>Bar</name>
			<desc></desc>
		</wpt>
		<wpt lat="35.923410" lon="14.476370">
			<name>Pavilion palace</name>
			<desc>chinese</desc>
		</wpt>
		<wpt lat="35.926480" lon="14.477470">
			<name>Kristu Rxoxt</name>
			<desc></desc>
		</wpt>
		<wpt lat="36.029900" lon="14.217480">
			<name>Ta' Nona</name>
			<desc></desc>
		</wpt>
		<wpt lat="35.925240" lon="14.457060">
			<name>Trattoria da Nino</name>
			<desc>italian</desc>
		</wpt>
		<wpt lat="35.871640" lon="14.441460">
			<name>Donut Factory</name>
			<desc></desc>
		</wpt>
		<wpt lat="35.899070" lon="14.512860">
			<name>Str.eat</name>
			<desc></desc>
		</wpt>
		<wpt lat="35.897580" lon="14.458810">
			<name>Christian</name>
			<desc></desc>
		</wpt>
		<wpt lat="35.886960" lon="14.522210">
			<name>Christian</name>
			<desc></desc>
		</wpt>
		<wpt lat="35.908970" lon="14.426800">
			<name>Il Vecchio Forno</name>
			<desc></desc>
		</wpt>
		<wpt lat="35.895920" lon="14.510280">
			<name>St. James' Cavalier</name>
			<desc></desc>
		</wpt>
		<wpt lat="35.896220" lon="14.511070">
			<name>St. Catherine of Italy</name>
			<desc></desc>
		</wpt>
		<wpt lat="35.951480" lon="14.413940">
			<name>Restaurant</name>
			<desc></desc>
		</wpt>
		<wpt lat="36.061170" lon="14.282460">
			<name>Belancourt battery</name>
			<desc></desc>
		</wpt>
		<wpt lat="35.884130" lon="14.403420">
			<name>Cafe</name>
			<desc></desc>
		</wpt>
		<wpt lat="35.918510" lon="14.489350">
			<name>Ryan's Pub</name>
			<desc></desc>
		</wpt>
		<wpt lat="35.917300" lon="14.498090">
			<name>Fast food</name>
			<desc></desc>
		</wpt>
		<wpt lat="35.908830" lon="14.478330">
			<name>Tal-Petit Greengrocer</name>
			<desc></desc>
		</wpt>
		<wpt lat="35.952010" lon="14.386720">
			<name>Zeus Greek Restaurant</name>
			<desc></desc>
		</wpt>
		<wpt lat="36.042130" lon="14.247190">
			<name>Christian</name>
			<desc></desc>
		</wpt>
		<wpt lat="35.899300" lon="14.514420">
			<name>Da Pablo</name>
			<desc></desc>
		</wpt>
		<wpt lat="36.031770" lon="14.219840">
			<name>Xlendi Church</name>
			<desc></desc>
		</wpt>
		<wpt lat="35.872240" lon="14.526180">
			<name>Tucson</name>
			<desc></desc>
		</wpt>
		<wpt lat="35.948240" lon="14.416870">
			<name>Christian</name>
			<desc></desc>
		</wpt>
		<wpt lat="35.873930" lon="14.513440">
			<name>Gallerija Shoping Complex</name>
			<desc></desc>
		</wpt>
		<wpt lat="35.885500" lon="14.522280">
			<name>Malta at War Museum</name>
			<desc></desc>
		</wpt>
		<wpt lat="36.028290" lon="14.322950">
			<name>Fast food</name>
			<desc></desc>
		</wpt>
		<wpt lat="35.888430" lon="14.520360">
			<name>Tate</name>
			<desc>mediterranean</desc>
		</wpt>
		<wpt lat="35.916100" lon="14.499770">
			<name>Golden Star</name>
			<desc></desc>
		</wpt>
		<wpt lat="35.924090" lon="14.490080">
			<name>Fast food</name>
			<desc></desc>
		</wpt>
		<wpt lat="35.882780" lon="14.402280">
			<name>Religion place</name>
			<desc></desc>
		</wpt>
		<wpt lat="35.957540" lon="14.364420">
			<name>Charlie's tavern</name>
			<desc></desc>
		</wpt>
		<wpt lat="35.887410" lon="14.402810">
			<name>Ciapetti</name>
			<desc></desc>
		</wpt>
		<wpt lat="35.896670" lon="14.511720">
			<name>Christian</name>
			<desc></desc>
		</wpt>
		<wpt lat="35.903420" lon="14.377310">
			<name>Bingemma Chapel</name>
			<desc></desc>
		</wpt>
		<wpt lat="35.876090" lon="14.505550">
			<name>MCAST Chapel</name>
			<desc></desc>
		</wpt>
		<wpt lat="36.048320" lon="14.237480">
			<name>La Stanza</name>
			<desc></desc>
		</wpt>
		<wpt lat="35.953900" lon="14.423820">
			<name>Tal-Kaptan</name>
			<desc>italian</desc>
		</wpt>
		<wpt lat="36.071280" lon="14.260860">
			<name>Christian</name>
			<desc></desc>
		</wpt>
		<wpt lat="36.038980" lon="14.289390">
			<name>American Bar</name>
			<desc></desc>
		</wpt>
		<wpt lat="35.897800" lon="14.500120">
			<name>Irrera</name>
			<desc></desc>
		</wpt>
		<wpt lat="36.070570" lon="14.258790">
			<name>Lantern</name>
			<desc></desc>
		</wpt>
		<wpt lat="35.892550" lon="14.491820">
			<name>Christian</name>
			<desc></desc>
		</wpt>
		<wpt lat="36.059980" lon="14.219130">
			<name>Religion place</name>
			<desc></desc>
		</wpt>
		<wpt lat="35.884180" lon="14.400240">
			<name>Cafe</name>
			<desc></desc>
		</wpt>
		<wpt lat="36.020510" lon="14.271070">
			<name>Fish restaurant</name>
			<desc>regional</desc>
		</wpt>
		<wpt lat="36.072250" lon="14.261080">
			<name>Odyssey</name>
			<desc></desc>
		</wpt>
		<wpt lat="35.895170" lon="14.465640">
			<name>Butterfly Bar</name>
			<desc></desc>
		</wpt>
		<wpt lat="36.044970" lon="14.239410">
			<name>Jubilee</name>
			<desc></desc>
		</wpt>
		<wpt lat="35.887930" lon="14.522090">
			<name>Lawrence of Rom</name>
			<desc></desc>
		</wpt>
		<wpt lat="35.912380" lon="14.444790">
			<name>Religion place</name>
			<desc></desc>
		</wpt>
		<wpt lat="35.880730" lon="14.397240">
			<name>Religion place</name>
			<desc></desc>
		</wpt>
		<wpt lat="35.923910" lon="14.489090">
			<name>Footloose</name>
			<desc></desc>
		</wpt>
		<wpt lat="35.912570" lon="14.462690">
			<name>Mekek</name>
			<desc></desc>
		</wpt>
		<wpt lat="35.956940" lon="14.362450">
			<name>717</name>
			<desc></desc>
		</wpt>
		<wpt lat="35.908280" lon="14.506720">
			<name>Jesus of Nazareth Church</name>
			<desc></desc>
		</wpt>
		<wpt lat="35.894700" lon="14.490900">
			<name>Jon's Pastizzeria</name>
			<desc></desc>
		</wpt>
		<wpt lat="35.966180" lon="14.359560">
			<name>Supermarket</name>
			<desc></desc>
		</wpt>
		<wpt lat="35.914550" lon="14.497250">
			<name>Vecchia Napoli</name>
			<desc>italian</desc>
		</wpt>
		<wpt lat="35.893790" lon="14.531470">
			<name>Fort Rinella</name>
			<desc></desc>
		</wpt>
		<wpt lat="35.990070" lon="14.359740">
			<name>Ray's Lido Restaurant</name>
			<desc></desc>
		</wpt>
		<wpt lat="35.900200" lon="14.483890">
			<name>Subway</name>
			<desc></desc>
		</wpt>
		<wpt lat="35.923250" lon="14.490920">
			<name>Egnatia</name>
			<desc>balkan</desc>
		</wpt>
		<wpt lat="35.900000" lon="14.513530">
			<name>Fesh direct</name>
			<desc></desc>
		</wpt>
		<wpt lat="36.071800" lon="14.258040">
			<name>Pierre's Bar</name>
			<desc></desc>
		</wpt>
		<wpt lat="36.069380" lon="14.235510">
			<name>Francesco's Bar</name>
			<desc>pizza</desc>
		</wpt>
		<wpt lat="35.914270" lon="14.506600">
			<name>Falafel Kebab Salad - Lebanese</name>
			<desc></desc>
		</wpt>
		<wpt lat="35.876330" lon="14.511400">
			<name>MCsims</name>
			<desc></desc>
		</wpt>
		<wpt lat="35.921860" lon="14.491920">
			<name>Caffè Portomaso</name>
			<desc></desc>
		</wpt>
		<wpt lat="36.061200" lon="14.283570">
			<name>Roman Remains</name>
			<desc></desc>
		</wpt>
		<wpt lat="35.896030" lon="14.510730">
			<name>Our Lady of Victories</name>
			<desc></desc>
		</wpt>
		<wpt lat="35.885220" lon="14.403450">
			<name>St Agatha's Chapel</name>
			<desc></desc>
		</wpt>
		<wpt lat="36.070540" lon="14.259430">
			<name>The Rooftop Restaurant</name>
			<desc></desc>
		</wpt>
		<wpt lat="36.045000" lon="14.239180">
			<name>Royal</name>
			<desc></desc>
		</wpt>
		<wpt lat="35.952500" lon="14.411480">
			<name>Bayside</name>
			<desc></desc>
		</wpt>
		<wpt lat="35.897810" lon="14.512180">
			<name>Kantina</name>
			<desc></desc>
		</wpt>
		<wpt lat="35.912780" lon="14.501440">
			<name>Shop</name>
			<desc></desc>
		</wpt>
		<wpt lat="36.060320" lon="14.278720">
			<name>Fast food</name>
			<desc></desc>
		</wpt>
		<wpt lat="35.886060" lon="14.523210">
			<name>In Guardia / Alarme re-enactments</name>
			<desc></desc>
		</wpt>
		<wpt lat="35.882090" lon="14.398970">
			<name>Ristorante Cosmana Navarra</name>
			<desc></desc>
		</wpt>
		<wpt lat="35.895790" lon="14.346870">
			<name>San Martin</name>
			<desc></desc>
		</wpt>
		<wpt lat="35.863390" lon="14.384560">
			<name>Kappella Santa Duminka</name>
			<desc></desc>
		</wpt>
		<wpt lat="35.898700" lon="14.511110">
			<name>Guze Bistro</name>
			<desc></desc>
		</wpt>
		<wpt lat="36.044590" lon="14.241250">
			<name>CRAI</name>
			<desc></desc>
		</wpt>
		<wpt lat="35.914950" lon="14.420230">
			<name>Fast food</name>
			<desc></desc>
		</wpt>
		<wpt lat="36.041640" lon="14.273370">
			<name>Archaeological site</name>
			<desc></desc>
		</wpt>
		<wpt lat="35.898300" lon="14.509220">
			<name>National Museum of Fine Arts</name>
			<desc></desc>
		</wpt>
		<wpt lat="35.953360" lon="14.416720">
			<name>Oblico</name>
			<desc></desc>
		</wpt>
		<wpt lat="35.907100" lon="14.498170">
			<name>Bookbites Cafe</name>
			<desc></desc>
		</wpt>
		<wpt lat="35.901220" lon="14.512920">
			<name>Christian</name>
			<desc></desc>
		</wpt>
		<wpt lat="36.048320" lon="14.245240">
			<name>Christian</name>
			<desc></desc>
		</wpt>
		<wpt lat="35.898590" lon="14.512400">
			<name>Embassy</name>
			<desc></desc>
		</wpt>
		<wpt lat="35.883530" lon="14.400010">
			<name>Castelletti</name>
			<desc></desc>
		</wpt>
		<wpt lat="35.923750" lon="14.491870">
			<name>Trattoria Vigata</name>
			<desc></desc>
		</wpt>
		<wpt lat="36.046240" lon="14.239180">
			<name>Old Prison</name>
			<desc></desc>
		</wpt>
		<wpt lat="35.879350" lon="14.481980">
			<name>Monument</name>
			<desc></desc>
		</wpt>
		<wpt lat="36.032150" lon="14.260650">
			<name>X.T. Sports Cafe</name>
			<desc></desc>
		</wpt>
		<wpt lat="35.912380" lon="14.504700">
			<name>Scotts</name>
			<desc></desc>
		</wpt>
		<wpt lat="36.026820" lon="14.242960">
			<name>Sannat</name>
			<desc></desc>
		</wpt>
		<wpt lat="35.886890" lon="14.402740">
			<name>Carmelite Priory</name>
			<desc></desc>
		</wpt>
		<wpt lat="36.070130" lon="14.259920">
			<name>Tuck-Inn</name>
			<desc></desc>
		</wpt>
		<wpt lat="35.881200" lon="14.471610">
			<name>Kappella ta' San Frangisk</name>
			<desc></desc>
		</wpt>
		<wpt lat="36.024920" lon="14.296450">
			<name>Ta'Tona</name>
			<desc></desc>
		</wpt>
		<wpt lat="35.882680" lon="14.397660">
			<name>Shop</name>
			<desc></desc>
		</wpt>
		<wpt lat="35.914840" lon="14.497150">
			<name>Peppi's</name>
			<desc>pizza</desc>
		</wpt>
		<wpt lat="36.031690" lon="14.234460">
			<name>Supermarket</name>
			<desc></desc>
		</wpt>
		<wpt lat="35.891590" lon="14.485550">
			<name>Christian</name>
			<desc></desc>
		</wpt>
		<wpt lat="35.946410" lon="14.382910">
			<name>Xemxija Pitstop</name>
			<desc></desc>
		</wpt>
		<wpt lat="35.877480" lon="14.510470">
			<name>Hibs Nursery Club</name>
			<desc></desc>
		</wpt>
		<wpt lat="35.889550" lon="14.504480">
			<name>Christian</name>
			<desc></desc>
		</wpt>
		<wpt lat="36.046310" lon="14.238840">
			<name>Cafe San Martino</name>
			<desc></desc>
		</wpt>
		<wpt lat="36.044260" lon="14.238930">
			<name>Wine Grapes Bar</name>
			<desc></desc>
		</wpt>
		<wpt lat="35.958450" lon="14.389240">
			<name>Margo's Pizza</name>
			<desc></desc>
		</wpt>
		<wpt lat="35.888790" lon="14.463700">
			<name>The Atrium</name>
			<desc></desc>
		</wpt>
		<wpt lat="35.961450" lon="14.342690">
			<name>Restaurant</name>
			<desc></desc>
		</wpt>
		<wpt lat="35.951570" lon="14.414300">
			<name>Bad Bull</name>
			<desc></desc>
		</wpt>
		<wpt lat="35.915270" lon="14.495080">
			<name>Piccolo Padre</name>
			<desc>italian</desc>
		</wpt>
		<wpt lat="35.860280" lon="14.488940">
			<name>Christian</name>
			<desc></desc>
		</wpt>
		<wpt lat="36.044310" lon="14.240930">
			<name>Pastizzeria Sphinx</name>
			<desc></desc>
		</wpt>
		<wpt lat="35.871850" lon="14.441600">
			<name>Fast food</name>
			<desc></desc>
		</wpt>
		<wpt lat="35.872260" lon="14.519010">
			<name>Chick King</name>
			<desc></desc>
		</wpt>
		<wpt lat="35.899930" lon="14.515390">
			<name>La Giara</name>
			<desc></desc>
		</wpt>
		<wpt lat="36.046250" lon="14.239790">
			<name>St. Mary's Cathedral</name>
			<desc></desc>
		</wpt>
		<wpt lat="35.900670" lon="14.490610">
			<name>A.D. SuperMarket</name>
			<desc></desc>
		</wpt>
		<wpt lat="35.886470" lon="14.358580">
			<name>Wildlife Park</name>
			<desc></desc>
		</wpt>
		<wpt lat="35.872070" lon="14.441340">
			<name>Fast food</name>
			<desc></desc>
		</wpt>
		<wpt lat="35.933920" lon="14.345040">
			<name>Munchies Beach Café</name>
			<desc></desc>
		</wpt>
		<wpt lat="35.947140" lon="14.413600">
			<name>Empir3</name>
			<desc></desc>
		</wpt>
		<wpt lat="35.897260" lon="14.451510">
			<name>Good Shepard Convent</name>
			<desc></desc>
		</wpt>
		<wpt lat="35.892040" lon="14.441420">
			<name>Caffe Deli</name>
			<desc></desc>
		</wpt>
		<wpt lat="36.060580" lon="14.219190">
			<name>Religion place</name>
			<desc></desc>
		</wpt>
		<wpt lat="35.941560" lon="14.353090">
			<name>Manikata Church</name>
			<desc></desc>
		</wpt>
		<wpt lat="35.869090" lon="14.554830">
			<name>3 crosses</name>
			<desc></desc>
		</wpt>
		<wpt lat="35.896480" lon="14.510340">
			<name>Pjazza Teatru Rjal</name>
			<desc></desc>
		</wpt>
		<wpt lat="35.898190" lon="14.452120">
			<name>Balzan Youths Football Club</name>
			<desc></desc>
		</wpt>
		<wpt lat="36.043890" lon="14.242770">
			<name>The Duke Foodstore</name>
			<desc></desc>
		</wpt>
		<wpt lat="35.948480" lon="14.380660">
			<name>Roman Apiaries</name>
			<desc></desc>
		</wpt>
		<wpt lat="36.070030" lon="14.259150">
			<name>Creek Pub &amp; Wine Bar</name>
			<desc></desc>
		</wpt>
		<wpt lat="35.955280" lon="14.421060">
			<name>Simply British</name>
			<desc></desc>
		</wpt>
		<wpt lat="36.072150" lon="14.261020">
			<name>Dragon</name>
			<desc>fish</desc>
		</wpt>
		<wpt lat="35.900660" lon="14.483230">
			<name>Religion place</name>
			<desc></desc>
		</wpt>
		<wpt lat="35.885840" lon="14.404020">
			<name>Cathedral Museum</name>
			<desc></desc>
		</wpt>
		<wpt lat="35.966090" lon="14.355750">
			<name>Bar</name>
			<desc></desc>
		</wpt>
		<wpt lat="35.909920" lon="14.427480">
			<name>The Lord Nelson</name>
			<desc></desc>
		</wpt>
		<wpt lat="35.900280" lon="14.484060">
			<name>Matilda's Cafe and Bistro</name>
			<desc></desc>
		</wpt>
		<wpt lat="36.006870" lon="14.329770">
			<name>St. Mary's Tower</name>
			<desc></desc>
		</wpt>
		<wpt lat="35.896990" lon="14.510630">
			<name>McDonald's</name>
			<desc></desc>
		</wpt>
		<wpt lat="35.894680" lon="14.346790">
			<name>New Life</name>
			<desc>regional</desc>
		</wpt>
		<wpt lat="35.915150" lon="14.493220">
			<name>WIGI'S KITCHEN</name>
			<desc></desc>
		</wpt>
		<wpt lat="35.952320" lon="14.409580">
			<name>Angelos II</name>
			<desc></desc>
		</wpt>
		<wpt lat="35.874980" lon="14.534480">
			<name>Our Lady Of Graces</name>
			<desc></desc>
		</wpt>
		<wpt lat="35.920960" lon="14.379520">
			<name>Il-bennej</name>
			<desc></desc>
		</wpt>
		<wpt lat="36.050330" lon="14.265040">
			<name>Christian</name>
			<desc></desc>
		</wpt>
		<wpt lat="35.952690" lon="14.424030">
			<name>Quattro Fratelli Ristorante</name>
			<desc>italian</desc>
		</wpt>
		<wpt lat="35.894360" lon="14.506480">
			<name>Monument</name>
			<desc></desc>
		</wpt>
		<wpt lat="35.888760" lon="14.522340">
			<name>Christian</name>
			<desc></desc>
		</wpt>
		<wpt lat="35.988170" lon="14.375710">
			<name>Madonna Statue</name>
			<desc></desc>
		</wpt>
		<wpt lat="36.024420" lon="14.296270">
			<name>L-Ankra</name>
			<desc></desc>
		</wpt>
		<wpt lat="36.035240" lon="14.311560">
			<name>Restaurant</name>
			<desc></desc>
		</wpt>
		<wpt lat="35.899530" lon="14.516090">
			<name>Christian</name>
			<desc></desc>
		</wpt>
		<wpt lat="35.915770" lon="14.448360">
			<name>GS Superstore</name>
			<desc></desc>
		</wpt>
		<wpt lat="35.956590" lon="14.365040">
			<name>Il-Mitħna</name>
			<desc></desc>
		</wpt>
		<wpt lat="35.896570" lon="14.509370">
			<name>Burger King</name>
			<desc></desc>
		</wpt>
		<wpt lat="35.951310" lon="14.414930">
			<name>Shanghai Chinese Buffet</name>
			<desc>chinese</desc>
		</wpt>
		<wpt lat="35.952340" lon="14.410980">
			<name>Supermarket</name>
			<desc></desc>
		</wpt>
		<wpt lat="35.893150" lon="14.463260">
			<name>Ta' Xmun Pasticceria</name>
			<desc></desc>
		</wpt>
		<wpt lat="36.024590" lon="14.242860">
			<name>Louis Bar</name>
			<desc></desc>
		</wpt>
		<wpt lat="35.900960" lon="14.513050">
			<name>Christian</name>
			<desc></desc>
		</wpt>
		<wpt lat="36.049510" lon="14.192010">
			<name>Id-Dwejra</name>
			<desc></desc>
		</wpt>
		<wpt lat="35.904720" lon="14.448790">
			<name>Lija Cemetry</name>
			<desc></desc>
		</wpt>
		<wpt lat="35.877010" lon="14.464420">
			<name>Christian</name>
			<desc></desc>
		</wpt>
		<wpt lat="35.883270" lon="14.399890">
			<name>Ta Gesu Church</name>
			<desc></desc>
		</wpt>
		<wpt lat="36.037380" lon="14.289160">
			<name>Highlander Supermarket</name>
			<desc></desc>
		</wpt>
		<wpt lat="36.025730" lon="14.289680">
			<name>Għajnsielem F.C.</name>
			<desc></desc>
		</wpt>
		<wpt lat="36.059300" lon="14.209610">
			<name>Supermarket</name>
			<desc></desc>
		</wpt>
		<wpt lat="35.893590" lon="14.508180">
			<name>War Memorial</name>
			<desc></desc>
		</wpt>
		<wpt lat="35.956780" lon="14.365450">
			<name>Billy's Musiclub</name>
			<desc></desc>
		</wpt>
		<wpt lat="36.027830" lon="14.242260">
			<name>Sannat Central Market</name>
			<desc></desc>
		</wpt>
		<wpt lat="35.921900" lon="14.490860">
			<name>Maltese Mama</name>
			<desc>regional</desc>
		</wpt>
		<wpt lat="36.070840" lon="14.260560">
			<name>Perppermill</name>
			<desc></desc>
		</wpt>
		<wpt lat="35.913230" lon="14.506550">
			<name>Cafe Sakura</name>
			<desc></desc>
		</wpt>
		<wpt lat="35.952210" lon="14.386800">
			<name>Shawkiwan chinese restaurant</name>
			<desc></desc>
		</wpt>
		<wpt lat="35.967370" lon="14.350360">
			<name>Supermarket</name>
			<desc></desc>
		</wpt>
		<wpt lat="36.059910" lon="14.254000">
			<name>Ta' Frenċ</name>
			<desc></desc>
		</wpt>
		<wpt lat="35.951530" lon="14.414270">
			<name>Pizza Hut</name>
			<desc></desc>
		</wpt>
		<wpt lat="36.042830" lon="14.289580">
			<name>Almar</name>
			<desc></desc>
		</wpt>
		<wpt lat="36.031000" lon="14.217440">
			<name>Paradise</name>
			<desc></desc>
		</wpt>
		<wpt lat="35.896070" lon="14.502480">
			<name>Msida Bastion Historic Garden Cemetery</name>
			<desc></desc>
		</wpt>
		<wpt lat="35.886940" lon="14.496100">
			<name>Fast food</name>
			<desc></desc>
		</wpt>
		<wpt lat="35.933450" lon="14.411830">
			<name>San Pawl Milqi Roman Villa</name>
			<desc></desc>
		</wpt>
		<wpt lat="35.951520" lon="14.413840">
			<name>Villa Mare</name>
			<desc></desc>
		</wpt>
		<wpt lat="36.044640" lon="14.239240">
			<name>Red Cafe</name>
			<desc></desc>
		</wpt>
		<wpt lat="35.907570" lon="14.511290">
			<name>Café Cuba</name>
			<desc></desc>
		</wpt>
		<wpt lat="35.951060" lon="14.416960">
			<name>Cafe' de la Croix</name>
			<desc></desc>
		</wpt>
		<wpt lat="35.890570" lon="14.504900">
			<name>Pietro Paolo Floriani</name>
			<desc></desc>
		</wpt>
		<wpt lat="35.952190" lon="14.412650">
			<name>Bognor</name>
			<desc></desc>
		</wpt>
		<wpt lat="36.022760" lon="14.268480">
			<name>Cave | Archaeological site</name>
			<desc></desc>
		</wpt>
		<wpt lat="35.900040" lon="14.515190">
			<name>Toy Museum</name>
			<desc></desc>
		</wpt>
		<wpt lat="36.035900" lon="14.311440">
			<name>St. Joseph Church</name>
			<desc></desc>
		</wpt>
		<wpt lat="35.900910" lon="14.515020">
			<name>GiGi's</name>
			<desc></desc>
		</wpt>
		<wpt lat="36.072050" lon="14.260950">
			<name>Marella</name>
			<desc></desc>
		</wpt>
		<wpt lat="35.902950" lon="14.505250">
			<name>Fort Manoel</name>
			<desc></desc>
		</wpt>
		<wpt lat="35.923080" lon="14.475690">
			<name>Greens Supermarket</name>
			<desc></desc>
		</wpt>
		<wpt lat="35.885710" lon="14.499970">
			<name>Spencer</name>
			<desc></desc>
		</wpt>
		<wpt lat="35.909750" lon="14.495540">
			<name>Holy Trinity Church</name>
			<desc></desc>
		</wpt>
		<wpt lat="35.900360" lon="14.513840">
			<name>Omerta</name>
			<desc></desc>
		</wpt>
		<wpt lat="35.923250" lon="14.492280">
			<name>La Maltija</name>
			<desc>regional</desc>
		</wpt>
		<wpt lat="35.934400" lon="14.344410">
			<name>Munchies Spiaggia d'Oro</name>
			<desc></desc>
		</wpt>
		<wpt lat="35.912350" lon="14.501900">
			<name>Shop</name>
			<desc></desc>
		</wpt>
		<wpt lat="35.859560" lon="14.567160">
			<name>Ġnien tal Charles Clews</name>
			<desc></desc>
		</wpt>
		<wpt lat="36.055900" lon="14.213330">
			<name>Jeffrey's</name>
			<desc>regional</desc>
		</wpt>
		<wpt lat="35.885670" lon="14.518120">
			<name>Christian</name>
			<desc></desc>
		</wpt>
		<wpt lat="36.042930" lon="14.239010">
			<name>Il-Panzier</name>
			<desc></desc>
		</wpt>
		<wpt lat="35.919510" lon="14.367190">
			<name>Bar</name>
			<desc></desc>
		</wpt>
		<wpt lat="35.899190" lon="14.512870">
			<name>A's coffee and more</name>
			<desc></desc>
		</wpt>
		<wpt lat="36.045440" lon="14.241390">
			<name>Conimex</name>
			<desc></desc>
		</wpt>
		<wpt lat="35.908190" lon="14.482200">
			<name>Supermarket</name>
			<desc></desc>
		</wpt>
		<wpt lat="35.902220" lon="14.424930">
			<name>Graveyard</name>
			<desc></desc>
		</wpt>
		<wpt lat="35.991480" lon="14.365150">
			<name>Liberty Kiosk</name>
			<desc></desc>
		</wpt>
		<wpt lat="35.894330" lon="14.462480">
			<name>JMB Supermarket</name>
			<desc></desc>
		</wpt>
		<wpt lat="35.915470" lon="14.504400">
			<name>Il-Gabbana</name>
			<desc></desc>
		</wpt>
		<wpt lat="35.896920" lon="14.510320">
			<name>Wembley Store</name>
			<desc></desc>
		</wpt>
		<wpt lat="35.887800" lon="14.522250">
			<name>DCentre</name>
			<desc></desc>
		</wpt>
		<wpt lat="35.886400" lon="14.404150">
			<name>St Paul's Cathedral</name>
			<desc></desc>
		</wpt>
		<wpt lat="35.905500" lon="14.423340">
			<name>San Silvestru</name>
			<desc></desc>
		</wpt>
		<wpt lat="35.922620" lon="14.492300">
			<name>The millennium chapel</name>
			<desc></desc>
		</wpt>
		<wpt lat="35.896550" lon="14.463190">
			<name>McDonald's</name>
			<desc></desc>
		</wpt>
		<wpt lat="35.958440" lon="14.423120">
			<name>Malta National Aquarium</name>
			<desc></desc>
		</wpt>
		<wpt lat="35.922070" lon="14.491050">
			<name>Kandles</name>
			<desc>regional</desc>
		</wpt>
		<wpt lat="35.887800" lon="14.521740">
			<name>Oratorju San Guzepp</name>
			<desc></desc>
		</wpt>
		<wpt lat="36.049130" lon="14.274340">
			<name>Ramla Store</name>
			<desc></desc>
		</wpt>
		<wpt lat="35.911470" lon="14.489580">
			<name>Shop</name>
			<desc></desc>
		</wpt>
		<wpt lat="36.027440" lon="14.289800">
			<name>Christian</name>
			<desc></desc>
		</wpt>
		<wpt lat="36.046400" lon="14.264890">
			<name>Xaghra Stone Circle (Xaghra)</name>
			<desc></desc>
		</wpt>
		<wpt lat="35.922490" lon="14.490900">
			<name>O'Sarracino</name>
			<desc></desc>
		</wpt>
		<wpt lat="36.077010" lon="14.251480">
			<name>Qbajjar Restaurant</name>
			<desc></desc>
		</wpt>
		<wpt lat="35.991730" lon="14.365300">
			<name>Madonna Berikva</name>
			<desc></desc>
		</wpt>
		<wpt lat="35.900430" lon="14.513960">
			<name>Black Pig</name>
			<desc></desc>
		</wpt>
		<wpt lat="35.890590" lon="14.472680">
			<name>Fast food</name>
			<desc></desc>
		</wpt>
		<wpt lat="35.907640" lon="14.510610">
			<name>The Point</name>
			<desc></desc>
		</wpt>
		<wpt lat="35.907340" lon="14.498420">
			<name>Restaurant</name>
			<desc></desc>
		</wpt>
		<wpt lat="35.898750" lon="14.476290">
			<name>Religion place</name>
			<desc></desc>
		</wpt>
		<wpt lat="35.900670" lon="14.512030">
			<name>St. Paul</name>
			<desc></desc>
		</wpt>
		<wpt lat="36.036530" lon="14.187160">
			<name>Ras il-Wardja</name>
			<desc></desc>
		</wpt>
		<wpt lat="36.037740" lon="14.295070">
			<name>Nadur Youngsters FC - Snack Bar &amp; Pizzeria</name>
			<desc></desc>
		</wpt>
		<wpt lat="35.881950" lon="14.398540">
			<name>?</name>
			<desc></desc>
		</wpt>
		<wpt lat="35.897420" lon="14.473310">
			<name>Sweet Tooth</name>
			<desc></desc>
		</wpt>
		<wpt lat="35.900620" lon="14.483230">
			<name>University chapel</name>
			<desc></desc>
		</wpt>
		<wpt lat="35.945070" lon="14.411310">
			<name>Piscopo's Cash &amp; Carry</name>
			<desc></desc>
		</wpt>
		<wpt lat="36.024930" lon="14.295970">
			<name>Monkey's Fist Tavern</name>
			<desc></desc>
		</wpt>
		<wpt lat="35.921900" lon="14.491810">
			<name>Arkadia Foodstore</name>
			<desc></desc>
		</wpt>
		<wpt lat="35.988390" lon="14.375190">
			<name>Immaculate Conception Chapel</name>
			<desc></desc>
		</wpt>
		<wpt lat="35.897580" lon="14.518190">
			<name>World War II Siege Bell</name>
			<desc></desc>
		</wpt>
		<wpt lat="35.960010" lon="14.357590">
			<name>Calypso's Caves</name>
			<desc></desc>
		</wpt>
		<wpt lat="35.923030" lon="14.475450">
			<name>Jessie Bar</name>
			<desc></desc>
		</wpt>
		<wpt lat="36.072460" lon="14.261240">
			<name>Latini</name>
			<desc></desc>
		</wpt>
		<wpt lat="35.882720" lon="14.493940">
			<name>Christian</name>
			<desc></desc>
		</wpt>
		<wpt lat="36.029090" lon="14.215860">
			<name>Iċ-Ċima</name>
			<desc></desc>
		</wpt>
		<wpt lat="36.060400" lon="14.218500">
			<name>Religion place</name>
			<desc></desc>
		</wpt>
		<wpt lat="35.927080" lon="14.480940">
			<name>Fort Pembroke</name>
			<desc></desc>
		</wpt>
		<wpt lat="35.965510" lon="14.360480">
			<name>Riviera Blue</name>
			<desc></desc>
		</wpt>
		<wpt lat="35.948530" lon="14.410530">
			<name>Route 66</name>
			<desc></desc>
		</wpt>
		<wpt lat="35.952620" lon="14.420090">
			<name>Incognito</name>
			<desc></desc>
		</wpt>
		<wpt lat="36.036020" lon="14.312090">
			<name>Ur Choice Supermarket</name>
			<desc></desc>
		</wpt>
		<wpt lat="35.860510" lon="14.484060">
			<name>Monument ta' Hal Luqa</name>
			<desc></desc>
		</wpt>
		<wpt lat="36.034350" lon="14.253910">
			<name>Ta xiber</name>
			<desc></desc>
		</wpt>
		<wpt lat="35.952490" lon="14.410960">
			<name>McDonald's</name>
			<desc></desc>
		</wpt>
		<wpt lat="35.898340" lon="14.512590">
			<name>Café Jubilee</name>
			<desc></desc>
		</wpt>
		<wpt lat="35.866140" lon="14.513190">
			<name>Christian</name>
			<desc></desc>
		</wpt>
		<wpt lat="37.260350" lon="13.590640">
			<name>Trattoria Caico</name>
			<desc>seafood;regional</desc>
		</wpt>
		<wpt lat="37.519090" lon="13.113610">
			<name>Santuario di San Calogero</name>
			<desc></desc>
		</wpt>
		<wpt lat="37.724900" lon="12.515180">
			<name>Supermarket</name>
			<desc></desc>
		</wpt>
		<wpt lat="37.837780" lon="12.471200">
			<name>Baglio Cudia</name>
			<desc></desc>
		</wpt>
		<wpt lat="37.105440" lon="13.934920">
			<name>La Madia</name>
			<desc></desc>
		</wpt>
		<wpt lat="37.280820" lon="13.601180">
			<name>Kokalos</name>
			<desc>italian</desc>
		</wpt>
		<wpt lat="36.830810" lon="11.939850">
			<name>Ristorante Franco Castiglione</name>
			<desc></desc>
		</wpt>
		<wpt lat="36.831010" lon="11.941200">
			<name>Caffe Aurora</name>
			<desc></desc>
		</wpt>
		<wpt lat="36.826700" lon="11.949430">
			<name>Memorial</name>
			<desc></desc>
		</wpt>
		<wpt lat="36.833910" lon="11.944500">
			<name>La Risacca</name>
			<desc></desc>
		</wpt>
		<wpt lat="36.831360" lon="11.939120">
			<name>Trattoria del porto</name>
			<desc></desc>
		</wpt>
		<wpt lat="37.725780" lon="12.515350">
			<name>L'Incontro</name>
			<desc></desc>
		</wpt>
		<wpt lat="37.741790" lon="12.503570">
			<name>Christian</name>
			<desc></desc>
		</wpt>
		<wpt lat="37.651570" lon="12.592160">
			<name>Sculpture</name>
			<desc></desc>
		</wpt>
		<wpt lat="36.807230" lon="12.011310">
			<name>La Favarotta</name>
			<desc></desc>
		</wpt>
		<wpt lat="36.797360" lon="12.048730">
			<name>Le Cale</name>
			<desc></desc>
		</wpt>
		<wpt lat="36.809040" lon="11.995660">
			<name>L'Oasi di Venere</name>
			<desc></desc>
		</wpt>
		<wpt lat="37.941560" lon="12.835170">
			<name>Posto di Ristoro</name>
			<desc></desc>
		</wpt>
		<wpt lat="37.585050" lon="12.837050">
			<name>Bar Ristoro</name>
			<desc></desc>
		</wpt>
		<wpt lat="37.927000" lon="12.312100">
			<name>Castello Santa Caterina</name>
			<desc></desc>
		</wpt>
		<wpt lat="37.661780" lon="12.810280">
			<name>Monumento all'olivicultore Il Sicano</name>
			<desc></desc>
		</wpt>
		<wpt lat="37.619300" lon="12.979810">
			<name>Eurospin</name>
			<desc></desc>
		</wpt>
		<wpt lat="37.525170" lon="13.071100">
			<name>Dimeglio</name>
			<desc></desc>
		</wpt>
		<wpt lat="37.296590" lon="13.455610">
			<name>Bar Tropical Beach</name>
			<desc></desc>
		</wpt>
		<wpt lat="37.295750" lon="13.455710">
			<name>Shop</name>
			<desc></desc>
		</wpt>
		<wpt lat="37.299140" lon="13.494270">
			<name>Gelateria La Sosta</name>
			<desc></desc>
		</wpt>
		<wpt lat="37.294020" lon="13.512860">
			<name>Christian</name>
			<desc></desc>
		</wpt>
		<wpt lat="37.289620" lon="13.595050">
			<name>Bar Caffetteria Agli Arcosoli</name>
			<desc></desc>
		</wpt>
		<wpt lat="37.290900" lon="13.586430">
			<name>Bar</name>
			<desc></desc>
		</wpt>
		<wpt lat="37.403890" lon="13.871540">
			<name>Pizzeria Grotta Rossa</name>
			<desc>pizza</desc>
		</wpt>
		<wpt lat="37.805730" lon="12.866580">
			<name>Meridiana ed Ellittica</name>
			<desc></desc>
		</wpt>
		<wpt lat="37.808530" lon="12.866360">
			<name>Tensione</name>
			<desc></desc>
		</wpt>
		<wpt lat="37.808350" lon="12.866550">
			<name>Ingresso all'Orto Botanico</name>
			<desc></desc>
		</wpt>
		<wpt lat="37.808890" lon="12.868880">
			<name>Giardino Segreto 2</name>
			<desc></desc>
		</wpt>
		<wpt lat="37.808910" lon="12.869500">
			<name>Doppia spirale</name>
			<desc></desc>
		</wpt>
		<wpt lat="37.808060" lon="12.874440">
			<name>Case di Lorenzo</name>
			<desc></desc>
		</wpt>
		<wpt lat="37.808600" lon="12.871850">
			<name>Senza Titolo</name>
			<desc></desc>
		</wpt>
		<wpt lat="37.808650" lon="12.871420">
			<name>Casa del Farmacista</name>
			<desc></desc>
		</wpt>
		<wpt lat="37.805150" lon="12.876580">
			<name>Artwork</name>
			<desc></desc>
		</wpt>
		<wpt lat="37.293910" lon="13.526560">
			<name>Bar Garden</name>
			<desc></desc>
		</wpt>
		<wpt lat="37.386660" lon="13.769070">
			<name>Centro Commerciale Le Vigne</name>
			<desc></desc>
		</wpt>
		<wpt lat="37.649650" lon="12.599580">
			<name>CM Alimentari</name>
			<desc></desc>
		</wpt>
		<wpt lat="37.663170" lon="12.559980">
			<name>Santa Chiara</name>
			<desc></desc>
		</wpt>
		<wpt lat="37.652040" lon="12.592700">
			<name>Break Pizza</name>
			<desc></desc>
		</wpt>
		<wpt lat="37.650430" lon="12.594990">
			<name>Europizza</name>
			<desc>italian;pizza</desc>
		</wpt>
		<wpt lat="37.654150" lon="12.592100">
			<name>La Scrocchiarella</name>
			<desc>pizza</desc>
		</wpt>
		<wpt lat="37.812660" lon="12.869960">
			<name>Artwork</name>
			<desc></desc>
		</wpt>
		<wpt lat="37.815390" lon="12.868990">
			<name>Artwork</name>
			<desc></desc>
		</wpt>
		<wpt lat="37.803070" lon="12.872440">
			<name>Stella</name>
			<desc></desc>
		</wpt>
		<wpt lat="37.811390" lon="12.873720">
			<name>Artwork</name>
			<desc></desc>
		</wpt>
		<wpt lat="37.898040" lon="13.096090">
			<name>Monument</name>
			<desc></desc>
		</wpt>
		<wpt lat="37.652270" lon="12.589610">
			<name>Alla Kasbah</name>
			<desc>italian</desc>
		</wpt>
		<wpt lat="37.653100" lon="12.593060">
			<name>Art Café</name>
			<desc></desc>
		</wpt>
		<wpt lat="37.508340" lon="13.078410">
			<name>Chiesa di Santa Margherita</name>
			<desc></desc>
		</wpt>
		<wpt lat="37.505840" lon="13.083760">
			<name>Chiesa di Sant'Antonio Abate</name>
			<desc></desc>
		</wpt>
		<wpt lat="37.508860" lon="13.077970">
			<name>Cafe</name>
			<desc></desc>
		</wpt>
		<wpt lat="37.507630" lon="13.087150">
			<name>Chiesa di Santa Maria delle Giummare</name>
			<desc></desc>
		</wpt>
		<wpt lat="37.506090" lon="13.086470">
			<name>Fast food</name>
			<desc></desc>
		</wpt>
		<wpt lat="37.506260" lon="13.087030">
			<name>Memorial</name>
			<desc></desc>
		</wpt>
		<wpt lat="37.507200" lon="13.081390">
			<name>Monument</name>
			<desc></desc>
		</wpt>
		<wpt lat="37.510640" lon="13.064420">
			<name>Sisa</name>
			<desc></desc>
		</wpt>
		<wpt lat="37.509590" lon="13.079180">
			<name>La Favola</name>
			<desc></desc>
		</wpt>